stationName,stationLatitude,stationLongitude,station_no,addr1,addr2,x,y
102. 망원역 1번출구 앞,37.5556488,126.9106293,102, 서교동, 마포구,59,126
103. 망원역 2번출구 앞,37.55495071,126.9108353,103, 망원1동, 마포구,59,126
104. 합정역 1번출구 앞,37.55073929,126.9150848,104, 서교동, 마포구,59,126
105. 합정역 5번출구 앞,37.55000687,126.9148254,105, 서교동, 마포구,59,126
106. 합정역 7번출구 앞,37.54864502,126.9128265,106, 합정동, 마포구,59,126
107. 신한은행 서교동지점,37.55751038,126.9185028,107, 서교동, 마포구,59,127
108. 서교동 사거리,37.55274582,126.9186173,108, 서교동, 마포구,59,126
111. 상수역 2번출구 앞,37.54787064,126.9235306,111, 서강동, 마포구,59,126
112. 극동방송국 앞,37.54920197,126.9232025,112, 서강동, 마포구,59,126
113. 홍대입구역 2번출구 앞,37.5574379,126.9238205,113, 서교동, 마포구,59,127
114. 홍대입구역 8번출구 앞,37.55706024,126.9244232,114, 서교동, 마포구,59,126
115. 마스타 빌딩 앞,37.55893326,126.9271164,115, 신촌동, 서대문구,59,127
117. 홍은사거리,37.59115982,126.94133,117, 홍제1동, 서대문구,59,127
118. 광흥창역 2번출구 앞,37.54773331,126.9317627,118, 서강동, 마포구,59,126
119. 서강나루 공원,37.54520798,126.9314652,119, 신수동, 마포구,59,126
120. 신수동 사거리,37.54524231,126.9341126,120, 신수동, 마포구,59,126
121. 마포소방서 앞,37.54976654,126.9331741,121, 신수동, 마포구,59,126
122. 신성기사식당 앞,37.54745865,126.9383774,122, 신수동, 마포구,59,126
123. 문화촌 공원,37.59432983,126.9473877,123, 홍제3동, 서대문구,59,127
124. 서강대 정문 건너편,37.55113983,126.9369888,124, 신수동, 마포구,59,126
126. 서강대 후문 옆,37.55041122,126.9438477,126, 대흥동, 마포구,59,126
127. 현대벤처빌 앞,37.5535202,126.9369507,127, 대흥동, 마포구,59,126
128. 신촌역(2호선) 1번출구 옆,37.55549622,126.9363403,128, 신촌동, 서대문구,59,126
129. 신촌역(2호선) 6번출구 옆,37.55505371,126.9375687,129, 대흥동, 마포구,59,126
130. 신촌역(2호선) 7번출구 앞,37.55485916,126.9361572,130, 서교동, 마포구,59,126
131. 증산2교,37.5841713,126.9111023,131, 북가좌2동, 서대문구,59,127
133. 해담는다리,37.58203125,126.9089966,133, 북가좌2동, 서대문구,59,127
134. 연세로 명물길,37.55789185,126.9380798,134, 신촌동, 서대문구,59,127
135. 명물길 원형무대 앞,37.55922699,126.9398422,135, 신촌동, 서대문구,59,127
137. 신촌기차역입구 교차로,37.55681229,126.9431839,137, 신촌동, 서대문구,59,126
138. 신촌동 제1공영주차장 앞,37.5591774,126.9345245,138, 신촌동, 서대문구,59,127
139. 연세대 정문 건너편,37.55986404,126.9344177,139, 신촌동, 서대문구,59,127
140. 이화여대 후문,37.560009,126.9407349,140, 신촌동, 서대문구,59,127
141. 연대 대운동장 옆,37.56238174,126.9326477,141, 신촌동, 서대문구,59,127
142. 아현역 4번출구 앞,37.55720139,126.9556656,142, 아현동, 마포구,59,127
143. 공덕역 2번출구,37.54457855,126.9502182,143, 아현동, 마포구,59,126
144. 공덕역 8번출구,37.5435791,126.9513245,144, 공덕동, 마포구,59,126
145. 공덕역 5번출구,37.54425049,126.9516373,145, 공덕동, 마포구,59,126
146. 마포역 2번출구 뒤,37.53993607,126.9458237,146, 용강동, 마포구,59,126
147. 마포역 4번출구 뒤,37.53927231,126.9459152,147, 도화동, 마포구,59,126
148. 용강동 주민센터 앞,37.54234695,126.9430237,148, 용강동, 마포구,59,126
150. 서강대역 2번출구 앞,37.55295563,126.9343414,150, 대흥동, 마포구,59,126
153. 성산2교 사거리,37.56469727,126.9126129,153, 성산1동, 마포구,59,127
154. 마포구청역 ,37.56090927,126.9054947,154, 성산1동, 마포구,59,127
155. 가좌역1 번출구 앞,37.56829453,126.9150467,155,성산2동, 마포구,59,127
156. 서울서부지방법원 앞,37.54933167,126.9549179,156, 공덕동, 마포구,59,126
157. 애오개역 4번출구 앞,37.5530014,126.9566879,157, 공덕동, 마포구,59,126
159. 이대역 4번 출구,37.55695343,126.9463425,159, 신촌동, 서대문구,59,126
160. 북아현동 가구거리,37.55754852,126.9593811,160, 공덕동, 마포구,59,127
161. 무악재역1번 출구,37.58224487,126.9506455,161, 홍제2동, 서대문구,59,127
162. 봉원고가차도 밑,37.56626129,126.9466705,162, 신촌동, 서대문구,59,127
163. 명지전문대학교 정문 앞,37.58369827,126.9249649,163, 홍은2동, 서대문구,59,127
164. 북가좌1동 주민센터 ,37.57447815,126.9100494,164, 북가좌1동, 서대문구,59,127
165. 중앙근린공원,37.57513809,126.9139404,165, 북가좌1동, 서대문구,59,127
166. 가재울 초등학교,37.57381821,126.9192352,166, 남가좌2동, 서대문구,59,127
167. 연가초등학교 옆,37.57946014,126.9171295,167, 남가좌2동, 서대문구,59,127
169. 북가좌 삼거리,37.57300186,126.9077988,169, 북가좌1동, 서대문구,59,127
170. DMC파크뷰자이아파트 302동 앞,37.57311249,126.9224472,170, 남가좌2동, 서대문구,59,127
171. 임광빌딩 앞,37.56472397,126.9672775,171, 충현동, 서대문구,60,127
173. 서대문역 8번출구 앞,37.56477737,126.9661484,173, 충현동, 서대문구,60,127
175. 홍연2교옆,37.57806778,126.9308853,175, 남가좌1동, 서대문구,59,127
176. 명지대학교 도서관,37.58109665,126.9240265,176, 남가좌2동, 서대문구,59,127
177. 북가좌 초등학교,37.57763672,126.9096527,177, 북가좌1동, 서대문구,59,127
178. 증산3교 앞,37.57987595,126.9063492,178, 북가좌1동, 서대문구,59,127
179. 가좌역 4번출구 앞,37.56877518,126.9152985,179,남가좌1동, 서대문구,59,127
180. 충정로역 7번출구 아래,37.55996704,126.9624634,180, 충현동, 서대문구,60,127
181. 망원초록길 입구,37.55134201,126.9026718,181,4통, 망원1동,59,126
182. 망원2빗물펌프장 앞,37.5513649,126.9030609,182, 망원1동, 마포구,59,126
183. 하늘채코오롱아파트 건너편,37.56538773,126.9193268,183, 연남동, 마포구,59,127
184. 7번가피자 서교망원점,37.55894852,126.907753,184, 성산1동, 마포구,59,127
185. 마포 신수공원 앞,37.54254532,126.9342957,185, 신수동, 마포구,59,126
186. 월드컵공원,37.56396484,126.8982086,186, 성산2동, 마포구,58,127
188. 홍은동 정원여중 입구,37.58638763,126.9351273,188, 홍은2동, 서대문구,59,127
191. 서우빌딩,37.57889175,126.9107361,191, 북가좌2동, 서대문구,59,127
192. 연서어린이공원,37.57222748,126.9230652,192, 연희동, 서대문구,59,127
194. 증산교 앞,37.57731628,126.9029694,194, 북가좌1동, 서대문구,59,127
195. 모래내고가차도 ,37.56765747,126.9178085,195, 연희동, 서대문구,59,127
196. 연희교차로 인근,37.56612015,126.9258957,196, 연희동, 서대문구,59,127
198. 충정2교,37.5621376,126.9637756,198, 충현동, 서대문구,60,127
199. 서울 월드컵 경기장,37.56684494,126.8964462,199, 성산2동, 마포구,58,127
200. 국회의원회관,37.52841568,126.9139175,200, 여의동, 영등포구,59,126
201. 진미파라곤 앞,37.53123856,126.9213333,201, 여의동, 영등포구,59,126
202. 국민일보 앞,37.52881622,126.92453,202, 여의동, 영등포구,59,126
203. 국회의사당역 3번출구 옆,37.5280571,126.9187012,203, 여의동, 영등포구,59,126
204. 국회의사당역 5번출구 옆,37.52816391,126.9170227,204, 여의동, 영등포구,59,126
205. 산업은행 앞,37.52626419,126.9205093,205, 여의동, 영등포구,59,126
206. KBS 앞,37.52466583,126.9180222,206, 여의동, 영등포구,59,126
207. 여의나루역 1번출구 앞,37.52715683,126.9319,207, 여의동, 영등포구,59,126
209. 유진투자증권빌딩 앞,37.52461243,126.9278336,209, 여의동, 영등포구,59,126
213. KT앞,37.52190781,126.9189529,213, 여의동, 영등포구,59,126
214. 금융감독원 앞,37.5230217,126.9208374,214, 여의동, 영등포구,59,126
215. 여의도고교 앞,37.52483749,126.934906,215, 여의동, 영등포구,59,126
217. NH농협은행 앞,37.52207947,126.9303665,217, 여의동, 영등포구,59,126
219. 롯데캐슬엠파이어 옆,37.52069473,126.9258347,219, 여의동, 영등포구,59,126
220. 미성아파트 A동 앞,37.5193634,126.9260483,220, 여의동, 영등포구,59,126
221. 여의도초교 앞,37.52267456,126.9377899,221, 여의동, 영등포구,59,126
222. 시범아파트버스정류장 옆,37.51902008,126.9368897,222, 여의동, 영등포구,59,126
223. 진주아파트상가 앞,37.51913071,126.9333725,223, 여의동, 영등포구,59,126
224. 롯데캐슬 앞,37.5200882,126.9323654,224, 여의동, 영등포구,59,126
225. 앙카라공원 앞,37.51758575,126.9296188,225, 여의동, 영등포구,59,126
226. 샛강역 1번출구 앞,37.51776505,126.9284134,226, 여의동, 영등포구,59,126
227. 양평2나들목 보행통로 입구,37.54466629,126.8883591,227, 양평2동, 영등포구,58,126
228. 선유도역 3번출구 앞,37.53845978,126.8945084,228, 양평2동, 영등포구,58,126
229. 양평1 보행육교 앞,37.53587341,126.8921814,229, 양평2동, 영등포구,58,126
230. 영등포구청역 1번출구,37.52463531,126.8962174,230, 당산1동, 영등포구,58,126
231. 남부고용노동지청 남측,37.52450562,126.8918228,231, 양평1동, 영등포구,58,126
232. 양평우림 이비즈센타 앞,37.52565002,126.8878174,232, 양평1동, 영등포구,58,126
233. 양평1동 YP센터 앞,37.52848816,126.8916473,233, 양평1동, 영등포구,58,126
235. 신길동 우리은행 옆,37.50456619,126.9102325,235, 신길3동, 영등포구,59,125
236. 문래동자이아파트 앞,37.51615524,126.8946152,236, 문래동, 영등포구,58,126
237. 보라매 두산위브 건너편,37.49651337,126.9148026,237, 신대방2동, 동작구,59,125
238. 제2구민체육센타 앞,37.52638626,126.9027557,238, 당산1동, 영등포구,59,126
239. 유스호스텔 앞,37.5258522,126.9032822,239, 영등포동, 영등포구,59,126
240. 문래역 4번출구 앞,37.51873779,126.8955765,240, 문래동, 영등포구,58,126
241. 신길우성1차아파트 앞 공원,37.50501633,126.8985367,241, 도림동, 영등포구,58,125
242. 신길선원가와인아파트 앞,37.51093292,126.9102249,242, 도림동, 영등포구,59,125
243. 이앤씨드림타워 앞,37.52708435,126.8913803,243, 양평1동, 영등포구,58,126
244. 영등포삼환아파트 앞,37.53007889,126.9057083,244, 영등포동, 영등포구,59,126
245. 삼성생명 당산사옥 앞,37.52826309,126.8966293,245, 당산2동, 영등포구,58,126
247. 당산역 10번출구 앞,37.53342056,126.9022369,247, 당산2동, 영등포구,59,126
248. 초원아파트 앞,37.53105545,126.9242096,248, 여의동, 영등포구,59,126
249. 여의도중학교 옆,37.52434921,126.9361191,249,여의동, 영등포구,59,126
250. 대림아파트 사거리,37.50764084,126.9230804,250, 신길7동, 영등포구,59,125
251. 서울지방병무청 버스정류장,37.50449371,126.9219513,251, 신길7동, 영등포구,59,125
252. 보라매역4번출구,37.49982834,126.9199448,252, 신길6동, 영등포구,59,125
254. 도림신협 앞,37.50380325,126.9034195,254, 신길5동, 영등포구,59,125
255. 도림사거리,37.50657272,126.9011307,255, 신길3동, 영등포구,59,125
256. 동아에코빌입구,37.50947571,126.8992996,256, 도림동, 영등포구,58,125
258. 신길역3번출구,37.51769257,126.914299,258, 영등포동, 영등포구,59,126
259. 대방역6번출구,37.51359177,126.9259338,259, 신길7동, 영등포구,59,126
262. 영문초등학교 사거리,37.51992798,126.889183,262, 문래동, 영등포구,58,126
263. 근로자회관 사거리,37.51715088,126.8886261,263, 문래동, 영등포구,58,126
264. 교보생명보험 앞,37.52193069,126.8916168,264, 당산1동, 영등포구,58,126
265. 영등포유통상가 사거리,37.52113342,126.8965378,265, 당산1동, 영등포구,58,126
266. 영등포청과시장 사거리,37.52029419,126.9011917,266, 영등포동, 영등포구,58,126
267. 삼성화재 사옥 옆,37.53596115,126.8983002,267, 양평2동, 영등포구,58,126
268. 그랜드컨벤션센터 앞,37.53471756,126.9000015,268, 당산2동, 영등포구,58,126
270. 증권거래소후문교차로,37.52234268,126.9271011,270, 여의동, 영등포구,59,126
271. 샛강생태공원방문자센터 앞,37.51896286,126.9216156,271, 여의동, 영등포구,59,126
272. 당산육갑문,37.53533936,126.9036789,272, 당산2동, 영등포구,59,126
275. 신동아아파트,37.52269745,126.8856812,275, 양평1동, 영등포구,58,126
276. 영등포로터리2,37.51828384,126.9126358,276, 영등포동, 영등포구,59,126
278. 쌍용플레티넘오피스텔,37.50793076,126.8952332,278, 도림동, 영등포구,58,125
279. 영등포 푸르지오 아파트 B,37.51322937,126.9044647,279, 영등포본동, 영등포구,59,126
280. 양평동6차현대아파트 앞,37.53210068,126.8944397,280, 양평2동, 영등포구,58,126
281. 대림신동아아파트 앞,37.49824142,126.8939819,281, 대림3동, 영등포구,58,125
282. 신한은행 대림동지점,37.48752975,126.9048767,282, 대림2동, 영등포구,59,125
283. 아크로타워 스퀘어(영등포시장),37.52251816,126.9072189,283, 영등포동, 영등포구,59,126
284. 센트럴 푸르지오 시티 앞,37.51821136,126.9022293,284, 영등포동, 영등포구,59,126
285. 콤텍시스템 앞,37.49985886,126.8972397,285, 대림3동, 영등포구,58,125
286. 우성아파트 교차로,37.49457169,126.8997498,286, 대림2동, 영등포구,58,125
287. 영등포전화국사거리 (서강어린이공원),37.52576828,126.9057388,287, 영등포동, 영등포구,59,126
288. 쌍용예가(구청별관),37.52809906,126.8933868,288, 양평1동, 영등포구,58,126
289. 대림3동사거리,37.49980927,126.8980026,289, 대림3동, 영등포구,58,125
290. 새말소공원,37.5315094,126.8978272,290, 당산2동, 영등포구,58,126
291. 문래동 하이테크 시티,37.51412964,126.8993912,291, 문래동, 영등포구,58,126
292. 영일 어린이공원,37.51012039,126.904068,292, 도림동, 영등포구,59,125
293. 충북 미래관,37.52917099,126.9075775,293, 당산2동, 영등포구,59,126
295.영등포공원 분수대 앞,37.51481247,126.911705,295, 영등포본동, 영등포구,59,126
296.KT플라자 영등포점,37.52630234,126.9053803,296, 영등포동, 영등포구,59,126
298.KBS 연구동 건너편,37.52750778,126.914299,298, 여의동, 영등포구,59,126
299.여의도 순복음교회,37.53179169,126.9224548,299, 여의동, 영등포구,59,126
300. 정동사거리,37.56805038,126.9692307,300, 소공동, 중구,60,127
301. 경복궁역 7번출구 앞,37.57579422,126.9714508,301, 사직동, 종로구,60,127
302. 경복궁역 4번출구 뒤,37.57594681,126.9740601,302, 사직동, 종로구,60,127
303. 광화문역 1번출구 앞,37.57176971,126.9746628,303, 사직동, 종로구,60,127
305. 종로구청 옆,37.57255936,126.9783325,305, 종로1·2·3·4가동, 종로구,60,127
308. 광화문 S타워 앞,37.56996918,126.973938,308, 사직동, 종로구,60,127
309. 광화문역 6번출구 옆 B,37.56996155,126.9761581,309, 사직동, 종로구,60,127
310. 청계광장 옆,37.56887817,126.9774704,310, 명동, 중구,60,127
314. 국립현대미술관,37.5797081,126.9808579,314, 삼청동, 종로구,60,127
316. 종각역 1번출구 앞,37.57039642,126.9817886,316, 창신2동, 종로구,60,127
318. 광교사거리 남측,37.56863403,126.9823151,318, 명동, 중구,60,127
320. 을지로입구역 4번출구 앞,37.56622314,126.9835892,320, 명동, 중구,60,127
321. KEB 하나금융그룹 명동사옥 옆,37.56546402,126.9841385,321, 명동, 중구,60,127
322. 명동성당 앞,37.56447601,126.986969,322, 명동, 중구,60,127
326. 안국역 5번출구 앞,37.57624054,126.9861603,326, 창신2동, 종로구,60,127
327. 낙원상가 옆,37.57335663,126.9874649,327, 창신2동, 종로구,60,127
328. 탑골공원 앞,37.57039642,126.9881897,328, 창신2동, 종로구,60,127
329. 청계2가 사거리 옆,37.56848526,126.9878845,329, 창신2동, 종로구,60,127
331. 을지로2가 사거리 북측,37.56638336,126.9872055,331, 명동, 중구,60,127
332. 을지로2가 사거리 남측,37.56599045,126.987793,332, 명동, 중구,60,127
334. 종로3가역 2번출구 뒤,37.5705986,126.9917908,334, 창신2동, 종로구,60,127
335. 종로3가역 15번출구 앞,37.57019424,126.9916534,335, 창신2동, 종로구,60,127
336. 충무로역 6번출구 앞,37.56144714,126.9931107,336, 필동, 중구,60,127
337. 창경궁 입구,37.57897949,126.9964752,337, 이화동, 종로구,60,127
338. 세운스퀘어 앞,37.57095718,126.9971237,338, 종로1·2·3·4가동, 종로구,60,127
339. 종로4가 사거리,37.57106781,126.9981918,339, 종로1·2·3·4가동, 종로구,60,127
340. 혜화동 로터리,37.58562851,127.000679,340, 혜화동, 종로구,60,127
341. 혜화역 3번출구 뒤,37.58156967,127.0017853,341, 이화동, 종로구,60,127
342. 대학로 마로니에공원,37.57978439,127.002533,342, 이화동, 종로구,60,127
343. 힐스테이트창경궁 아파트 앞,37.57561111,127.0046997,343, 종로5·6가동, 종로구,60,127
344. 성균관대 E하우스 앞,37.57419968,127.0065918,344, 종로5·6가동, 종로구,60,127
345. 서울보증보험본사 앞,37.57330704,127.0007095,345, 종로5·6가동, 종로구,60,127
346. 맥스타일 앞,37.56918335,127.0098801,346, 광희동, 중구,60,127
347. 동대문역사문화공원역 9번출구 앞,37.56533051,127.007843,347, 광희동, 중구,60,127
348. 독립문역 사거리,37.57202911,126.9607849,348, 교남동, 종로구,60,127
349. 어린이도서관,37.57633209,126.9685898,349, 사직동, 종로구,60,127
351. 청운초교 앞 삼거리,37.58496857,126.9704132,351, 청운효자동, 종로구,60,127
353. 재동초교 앞 삼거리,37.57938766,126.9849472,353, 가회동, 종로구,60,127
354. 포르투갈 대사관 앞,37.57915497,126.9889603,354, 가회동, 종로구,60,127
355. 서울사대부설초등학교 앞,37.57650757,127.0024567,355, 이화동, 종로구,60,127
356. KT혜화지사 앞,37.57714462,127.0020599,356, 이화동, 종로구,60,127
358. 성균관대입구 사거리 A,37.58250046,126.9985352,358, 혜화동, 종로구,60,127
359. 원남동사거리,37.57606125,126.9976807,359, 종로1·2·3·4가동, 종로구,60,127
361. 동묘앞역 1번출구 뒤,37.57324219,127.0159073,361, 숭인1동, 종로구,60,127
362. 청계8가사거리 A,37.57219696,127.0230408,362, 숭인2동, 종로구,61,127
363. 신설동역 11번출구 뒤,37.57559204,127.02285,363, 숭인2동, 종로구,61,127
364. 창신역 1번출구 앞,37.57933426,127.0150833,364, 숭인1동, 종로구,60,127
367. 독립문역 3-1번출구 ,37.57415771,126.958519,367, 무악동, 종로구,59,127
368. SK 서린빌딩 앞,37.5692482,126.9805374,368, 종로1·2·3·4가동, 종로구,60,127
370. 시청역(2호선) 9번출구 뒤,37.56322861,126.9748383,370, 소공동, 중구,60,127
371. 동대입구역 6번출구 뒤,37.55887222,127.0055389,371, 장충동, 중구,60,127
372. 약수역 3번출구 뒤,37.55429459,127.0112,372, 약수동, 중구,60,126
374. 청구역 2번출구 앞,37.5604744,127.0140762,374, 동화동, 중구,60,127
379. 서울역9번출구,37.55599976,126.9733582,379, 회현동, 중구,60,126
380. CJ제일제당 앞,37.56386566,127.0027466,380, 광희동, 중구,60,127
381. 장충체육관,37.55853271,127.0069885,381, 장충동, 중구,60,127
382. 약수역 10번출구 앞,37.55519867,127.0100479,382, 다산동, 중구,60,126
383. 신당역 12번 출구 뒤,37.5658493,127.0164032,383, 신당동, 중구,60,127
384. 종로학원본원 ,37.55978012,126.9685059,384, 중림동, 중구,60,127
385. 종각역 5번출구,37.56983566,126.9826584,385, 창신2동, 종로구,60,127
387. 훈련원공원주차장 앞,37.56699371,127.0034638,387, 을지로동, 중구,60,127
388. 동성중학교 앞,37.58573532,127.0016098,388, 혜화동, 종로구,60,127
389. 을지로4가역 1번출구,37.5667305,126.9966049,389, 을지로동, 중구,60,127
390. 충무로역 1번출구,37.56138992,126.9953537,390, 필동, 중구,60,127
391. 시립미술관,37.56505203,126.9734039,391, 소공동, 중구,60,127
393. 동대문역 8번 출구,37.57014084,127.0093765,393, 종로5·6가동, 종로구,60,127
394. 경희궁 자이 3단지,37.56748962,126.9659195,394, 교남동, 종로구,60,127
395. 경희궁 자이 2단지,37.56885529,126.9645615,395, 교남동, 종로구,60,127
397. 종묘공영주차장 건너편,37.57048035,126.9966354,397, 종로1·2·3·4가동, 종로구,60,127
398. 을지로3가역 3번출구,37.56655884,126.9924393,398, 을지로동, 중구,60,127
399. 서울역 센트럴 자이아파트,37.55410767,126.9654083,399, 중림동, 중구,60,126
400. 상암한화오벨리스크 1차 앞,37.58752441,126.8830032,400, 상암동, 마포구,58,127
401. 상암월드컵파크 10단지 앞,37.58618927,126.8816147,401, 상암동, 마포구,58,127
402. 상암월드컵파크 9단지 앞,37.5829277,126.879837,402, 상암동, 마포구,58,127
403. 부엉이공원 앞,37.58559036,126.8847275,403, 상암동, 마포구,58,127
405. DMC빌 앞,37.58265686,126.885788,405, 상암동, 마포구,58,127
406. 상암월드컵파크 7단지 앞,37.58111191,126.8808746,406, 상암동, 마포구,58,127
407. 마포구 육아종합지원센터,37.58063126,126.8836746,407, 상암동, 마포구,58,127
408. LG CNS앞,37.58081055,126.8866501,408, 상암동, 마포구,58,127
409. 누리꿈스퀘어 옆,37.57939911,126.8891602,409, 상암동, 마포구,58,127
410. 상암중학교 옆,37.57739258,126.8874741,410, 상암동, 마포구,58,127
411. DMC홍보관,37.5779953,126.8914719,411, 상암동, 마포구,58,127
412. DMC산학협력연구센터 앞,37.57565689,126.8907929,412, 상암동, 마포구,58,127
413. 상암월드컵파크 3단지 후문,37.57147598,126.8896866,413, 상암동, 마포구,58,127
414. 상암동주민센터 옆,37.57822037,126.8944702,414, 상암동, 마포구,58,127
415. DMC역 9번출구 앞,37.57746887,126.8973618,415, 상암동, 마포구,58,127
416. 상암월드컵파크 1단지 교차로,37.57566452,126.8944473,416, 상암동, 마포구,58,127
417. DMC역 2번출구 옆,37.57506943,126.8999176,417, 상암동, 마포구,58,127
418. 월드컵경기장역 3번출구 옆,37.57048035,126.8988953,418, 성산2동, 마포구,58,127
419. 홈플러스 마포점 앞,37.56842041,126.8994293,419, 성산2동, 마포구,58,127
420. 서울시 공공자전거 상암센터,37.56624603,126.8961792,420, 성산2동, 마포구,58,127
421. 마포구청 앞,37.56574631,126.9018631,421, 성산2동, 마포구,59,127
422. 문화비축기지,37.56897736,126.8944016,422, 성산2동, 마포구,58,127
424. 롯데하이마트 (상암월드컵점),37.57361984,126.8980484,424, 상암동, 마포구,58,127
425. DMC첨단산업센터,37.58450317,126.8855972,425, 상암동, 마포구,58,127
426. 서울신용보증재단,37.54906082,126.9541779,426, 아현동, 마포구,59,126
427. 성산시영아파트,37.56958389,126.9038162,427, 성산2동, 마포구,59,127
428. 명보사거리,37.56439972,126.9914322,428, 을지로동, 중구,60,127
429. 송도병원,37.54988861,127.0073471,429, 다산동, 중구,60,126
430. 장충동먹자골목 앞,37.56212616,127.0062561,430, 장충동, 중구,60,127
431. 청계천 영도교,37.5710144,127.0197449,431, 황학동, 중구,61,127
432. 마포중앙도서관,37.56333923,126.9082031,432, 성산1동, 마포구,59,127
433. 을지로입구역 2번출구,37.56634521,126.9822922,433, 명동, 중구,60,127
434. 신당 래미안 버스정류장,37.56148911,127.0239334,434, 왕십리2동, 성동구,61,127
435. SK 남산빌딩,37.55686188,126.9756165,435, 회현동, 중구,60,126
436. 이대역 5번출구,37.55659103,126.9461899,436, 대흥동, 마포구,59,126
437. 대흥역 1번출구,37.54846954,126.9409256,437, 대흥동, 마포구,59,126
438. 성산2-1 공영주차장,37.56472015,126.9067688,438, 성산2동, 마포구,59,127
440. 하늘공원 입구,37.57012177,126.8813477,440, 상암동, 마포구,58,127
441.염천교사거리,37.55989075,126.9714966,441, 소공동, 중구,60,127
442.서울역 서부,37.55641556,126.9691925,442, 중림동, 중구,60,126
443.호암아트홀,37.5621109,126.9707184,443, 소공동, 중구,60,127
445.대한상공회의소,37.56015396,126.9741058,445, 소공동, 중구,60,127
446. 상명대입구,37.60012817,126.9578323,446, 홍은1동, 종로구,59,127
447. 신영동삼거리,37.60399246,126.9619446,447, 부암동, 종로구,60,128
449. 일성아파트,37.60871887,126.9728622,449, 평창동, 종로구,60,128
450. 효자동 삼거리,37.58360291,126.9725494,450, 청운효자동, 종로구,60,127
451. 청와대앞길,37.58351517,126.9796677,451, 삼청동, 종로구,60,127
452. 동대문 종합시장 버스정류장,37.57123947,127.0044098,452, 종로5·6가동, 종로구,60,127
453. 종로오가 지하쇼핑센터 14번출구,37.57114029,127.0006714,453, 종로5·6가동, 종로구,60,127
454. 종로2가 버스정류장 (종각방향),37.57035828,126.9863815,454, 창신2동, 종로구,60,127
455. 종로6가역 버스정류장(동대문 방향),37.570961,127.0060577,455, 종로5·6가동, 종로구,60,127
456. 숭인2동 주민센터 입구,37.57447052,127.0198288,456, 숭인2동, 종로구,61,127
457. 종로꽃시장 입구 옆,37.57131958,127.0072098,457, 종로5·6가동, 종로구,60,127
458. 광화문역 5번출구,37.56989288,126.9775696,458, 종로1·2·3·4가동, 종로구,60,127
461. 서울지방경찰청,37.57436371,126.9723663,461, 사직동, 종로구,60,127
462. 신영동삼거리(북악터널방향),37.60351181,126.9620667,462, 평창동, 종로구,60,128
464. 삼청동 골목,37.58419037,126.9816971,464, 삼청동, 종로구,60,127
465. 삼청공원 앞,37.58760452,126.9835968,465, 삼청동, 종로구,60,127
466.롯데호텔,37.56584167,126.9798126,466, 명동, 중구,60,127
467.한국은행,37.5622139,126.9808655,467, 소공동, 중구,60,127
468.웨스틴 조선호텔,37.56415939,126.9794846,468, 소공동, 중구,60,127
469.회현역 1번출구,37.5592308,126.9801407,469, 회현동, 중구,60,127
470.회현역 7번출구,37.55974579,126.9800034,470, 회현동, 중구,60,127
471.회현사거리 남측,37.56035995,126.9826508,471, 명동, 중구,60,127
472.삼일교(시그니쳐 타워),37.56787109,126.9884033,472, 창신2동, 종로구,60,127
473.을지로4가역 9번출구,37.56605148,126.9979858,473, 을지로동, 중구,60,127
474.동대문역사문화공원역 1번출구 뒤편,37.56629944,127.0084915,474, 광희동, 중구,60,127
475.DDP 패션몰,37.56764984,127.0118103,475, 신당동, 중구,60,127
476.광희문,37.56443024,127.0099564,476, 광희동, 중구,60,127
477.앰배서더 호텔 주변,37.55928802,127.0026856,477, 장충동, 중구,60,127
479.동대입구역 3번 출구,37.55937576,127.0060272,479, 장충동, 중구,60,127
480.약수역 6번 출구,37.55432129,127.010704,480, 약수동, 중구,60,126
481.신당역 10번 출구,37.56703186,127.0157929,481, 신당동, 중구,60,127
483.남산타운아파트 버스정류장,37.54758453,127.0064392,483, 다산동, 중구,60,126
484.도동삼거리,37.55614853,126.9774246,484, 회현동, 중구,60,126
485.서울역5번출구,37.55677032,126.9731979,485, 회현동, 중구,60,126
486. 평창동주민센터 앞,37.60627365,126.9683228,486, 평창동, 종로구,60,128
487.신석초교앞 교차로 교통섬,37.54364014,126.9383087,487, 신수동, 마포구,59,126
488.푸르메병원,37.58456802,126.8802109,488, 상암동, 마포구,58,127
489.구룡근린공원,37.58320236,126.8827667,489, 상암동, 마포구,58,127
490.가온문화공원,37.58207703,126.8876648,490, 상암동, 마포구,58,127
491.월드컵파크 4단지,37.57597733,126.8880692,491, 상암동, 마포구,58,127
493.홍대입구역 6번출구,37.55657578,126.9288559,493, 서교동, 마포구,59,126
494.신수동주민센터,37.54724503,126.9350281,494, 신수동, 마포구,59,126
495.염리초등학교 앞,37.54243088,126.9469986,495, 용강동, 마포구,59,126
497.합정동주민센터 앞,37.551754,126.9123001,497, 합정동, 마포구,59,126
498.연남동주민센터 앞,37.56465149,126.9221268,498, 연남동, 마포구,59,127
500. 어린이대공원역 3번출구 앞,37.54706955,127.0742722,500, 화양동, 광진구,61,126
501. 광진구의회 앞,37.53730774,127.0703507,501, 자양3동, 광진구,61,126
502. 뚝섬유원지역 1번출구 앞,37.53186035,127.0671921,502, 자양3동, 광진구,61,126
505. 자양사거리 광진아크로텔 앞,37.53701019,127.0822449,505, 자양1동, 광진구,62,126
506. 금호 어울림 아파트 앞,37.54906082,127.0577927,506, 송정동, 성동구,61,126
508. 성수아카데미타워 앞,37.54516602,127.0575104,508, 성수2가3동, 성동구,61,126
510. 뚝도아리수정수센터 버스정류소 옆,37.54122162,127.0438004,510, 성수1가1동, 성동구,61,126
511. 서울숲역 5번 출구 옆,37.54458237,127.0446091,511, 성수1가1동, 성동구,61,126
512. 뚝섬역 1번 출구 옆,37.5485611,127.0450058,512, 성수1가2동, 성동구,61,126
513. 뚝섬역 5번 출구 정류소 옆,37.54630661,127.0498047,513, 성수1가2동, 성동구,61,126
514. 성수사거리 버스정류장 앞,37.54257965,127.0633087,514, 성수2가3동, 성동구,61,126
515. 광양중학교 앞,37.53023529,127.0868301,515, 자양2동, 광진구,62,126
516. 광진메디칼 앞,37.54840469,127.0693665,516, 군자동, 광진구,61,126
518. 청계천 박물관 앞,37.57152557,127.0353546,518, 마장동, 성동구,61,127
519. 양지사거리,37.56699371,127.0299149,519, 왕십리도선동, 성동구,61,127
520. 상왕십리역 4번 출구 앞,37.56385803,127.0303192,520, 왕십리도선동, 성동구,61,127
521. 왕십리역 11번 출구 앞,37.56144714,127.0349197,521, 행당1동, 성동구,61,127
522. 금호역 1번출구 앞,37.5486412,127.0164261,522, 금호2·3가동, 성동구,60,126
523. 옥수동성당 옆,37.54366302,127.014061,523, 옥수동, 성동구,60,126
524. 래미안금호하이리버 아파트 102동 옆,37.55220032,127.0250549,524, 금호1가동, 성동구,61,126
525. 한양대병원사거리,37.55805206,127.0403519,525, 사근동, 성동구,61,127
526. 용답토속공원 앞,37.56351089,127.0567246,526, 용답동, 성동구,61,127
529. 장한평역 8번 출구 앞,37.56137085,127.0636597,529, 용답동, 성동구,61,127
530. 청계벽산아파트 앞,37.56874847,127.0304031,530, 왕십리도선동, 성동구,61,127
533. 금남시장 교차로,37.54814911,127.0210877,533, 금호4가동, 성동구,61,126
534. 금호사거리,37.54863358,127.0257263,534, 금호2·3가동, 성동구,61,126
535. 응봉삼거리,37.5539856,127.0335922,535, 응봉동, 성동구,61,126
536. 행당역 2번출구 앞,37.55735016,127.029213,536, 행당2동, 성동구,61,127
537. 한양대후문역 부근,37.56035614,127.0413971,537, 사근동, 성동구,61,127
538. 답십리역 8번출구 앞,37.56764984,127.0511551,538, 용답동, 성동구,61,127
539. 군자교교차로,37.55979538,127.0742035,539, 중곡1동, 광진구,61,127
540. 군자역 7번출구 베스트샵 앞,37.55603027,127.0786438,540, 군자동, 광진구,62,127
542. 강변역 4번출구 뒤,37.53582382,127.094162,542, 구의3동, 광진구,62,126
543. 구의공원(테크노마트 앞),37.53596878,127.0946732,543, 구의3동, 광진구,62,126
544. 광남중학교,37.54072952,127.1029053,544, 광장동, 광진구,62,126
546. 잠실대교북단 교차로,37.53247833,127.0850906,546, 자양1동, 광진구,62,126
548. 자양나들목,37.5297699,127.0748596,548, 자양2동, 광진구,61,126
549. 아차산역 3번출구,37.55122375,127.0897064,549, 구의2동, 광진구,62,126
550. 서울시설공단 앞,37.57164001,127.0356598,550, 왕십리도선동, 성동구,61,127
551. 구의삼성쉐르빌 앞,37.54006195,127.0944977,551, 구의3동, 광진구,62,126
552. 대림아크로리버 앞,37.53657913,127.0929718,552, 구의3동, 광진구,62,126
553. 중곡 성원아파트 앞,37.57125473,127.0798035,553, 중곡3동, 광진구,62,127
555. 구의3동주민센터,37.53784943,127.0921707,555, 구의3동, 광진구,62,126
556. 달맞이공원,37.54205322,127.020401,556, 금호4가동, 성동구,61,126
557. 도선동 주민센터 앞,37.56764221,127.0256958,557, 왕십리도선동, 성동구,61,127
558. 성동광진 교육지원청 앞,37.56460571,127.0365219,558, 행당1동, 성동구,61,127
559. 왕십리역 4번 출구 건너편,37.56109619,127.0367966,559, 행당1동, 성동구,61,127
560. 비전교회 앞,37.55120468,127.0689316,560, 송정동, 성동구,61,126
561. 서울숲역 2번출구 앞,37.54281616,127.0446701,561, 성수1가1동, 성동구,61,126
562. 군자지하보도 앞,37.55924606,127.07341,562, 송정동, 성동구,61,127
563. 성동세무서 건너편,37.5479126,127.0627518,563, 성수2가3동, 성동구,61,126
564. 금호역 3번출구,37.54792786,127.0155716,564, 금호2·3가동, 성동구,60,126
565. 옥수역 3번출구,37.54136658,127.0177612,565, 옥수동, 성동구,60,126
567. 성수역 2번출구 앞,37.54459,127.0570831,567, 성수2가3동, 성동구,61,126
568. 청계8가 사거리 B,37.57110214,127.0235596,568, 왕십리도선동, 성동구,61,127
569. 응봉현대아파트 정류소,37.54958344,127.0302429,569, 응봉동, 성동구,61,126
571. 세종대학교 대양AI센터,37.55039597,127.0758591,571, 군자동, 광진구,61,126
573. 구의문주차장 앞,37.54523087,127.0847321,573, 구의2동, 광진구,62,126
575. 대원중고교 입구(대하빌딩),37.56429291,127.086937,575, 중곡4동, 광진구,62,127
576. 광나루역 3번 출구,37.54483032,127.1042633,576, 광장동, 광진구,62,126
577. 광진청소년수련관,37.54654694,127.1061325,577, 광장동, 광진구,62,126
578. 성동세무서 부근,37.54829025,127.0624619,578, 송정동, 성동구,61,126
579. 마장역 4번출구,37.56520462,127.0418472,579, 마장동, 성동구,61,127
582. 경일중학교 앞,37.54317856,127.0490799,582, 성수1가1동, 성동구,61,126
583. 청계천 생태교실 앞,37.56797028,127.0468903,583, 마장동, 성동구,61,127
584. 광진광장 교통섬,37.54782867,127.0726318,584, 송정동, 광진구,61,126
585. 성수2가1동 공영주차장 인근,37.53680801,127.0554886,585, 성수2가1동, 성동구,61,126
586. 마장동 주민센터,37.56594086,127.0453949,586, 마장동, 성동구,61,127
587. 유니베라 앞,37.54541779,127.0526428,587, 성수2가3동, 성동구,61,126
588. 뚝섬 유원지역,37.53268814,127.0674973,588, 자양3동, 광진구,61,126
589. 성수역3번출구,37.54415894,127.0566559,589, 성수2가3동, 성동구,61,126
590. 건국대학교 (입학정보관),37.53989029,127.0733643,590, 화양동, 광진구,61,126
591. 건국대학교 (행정관),37.54277802,127.0753708,591, 화양동, 광진구,61,126
592. 건국대학교 학생회관,37.54191208,127.0776367,592, 화양동, 광진구,62,126
593.자양중앙나들목,37.52845383,127.0780335,593, 자양2동, 광진구,62,126
594. 중랑물재생센터(서울새활용플라자),37.55830383,127.0580597,594, 용답동, 성동구,61,127
600. 휘경2동 주민센터,37.58991241,127.0686798,600, 휘경2동, 동대문구,61,127
601. 용신동주민센터,37.57594681,127.0373612,601, 용신동, 동대문구,61,127
602. 장안동 사거리,37.57217407,127.0713882,602, 장안1동, 동대문구,61,127
605. 신설동역8번출구,37.57419968,127.0264969,605, 용신동, 동대문구,61,127
606. 휘경공고앞,37.58462524,127.0702896,606, 휘경2동, 동대문구,61,127
607. 신이문역 2번출구,37.60271072,127.0678635,607,이문1동, 동대문구,61,128
608. 전농삼성아파트,37.58131027,127.0553436,608, 전농2동, 동대문구,61,127
609. 제기2교,37.58774567,127.037384,609, 청량리동, 동대문구,61,127
610. 동대문중 교차로,37.57308578,127.0521622,610, 답십리1동, 동대문구,61,127
612. 시립동부병원 앞 사거리,37.57366562,127.0308151,612, 용신동, 동대문구,61,127
613. 신설동역 10번출구 앞,37.57527161,127.023468,613, 용신동, 동대문구,61,127
614. 용두동 사거리,37.57768631,127.0310135,614, 용신동, 동대문구,61,127
615. 용두동 래미안허브리츠아파트 앞,37.57638168,127.0351105,615, 용신동, 동대문구,61,127
616. 서울시립대 정문 앞 A,37.58256149,127.0543671,616, 전농2동, 동대문구,61,127
617. 청솔우성아파트 앞,37.57420349,127.0576935,617, 답십리2동, 동대문구,61,127
621. 전농초등학교 건너편,37.57489014,127.0535355,621, 전농1동, 동대문구,61,127
622. 전농사거리 교통섬,37.57779312,127.0578308,622, 전농2동, 동대문구,61,127
623. 서울시립대 정문 앞 B,37.58369827,127.0538559,623, 전농2동, 동대문구,61,127
624. 전농동 동아아파트 앞,37.57418823,127.0458908,624, 전농1동, 동대문구,61,127
626. 군자교 서측 녹지대,37.56115341,127.0709686,626, 장안1동, 동대문구,61,127
627. 장안동삼거리 교통섬,37.57863235,127.071907,627, 장안2동, 동대문구,61,127
628. 휘봉고등학교 앞,37.58681488,127.067543,628, 휘경2동, 동대문구,61,127
630. 동대문구 보건소,37.57485199,127.0403061,630, 용신동, 동대문구,61,127
631. 답십리역 1번출구,37.5681839,127.0512772,631, 답십리1동, 동대문구,61,127
633. 청량리 기업은행 앞,37.58040619,127.0448227,633, 청량리동, 동대문구,61,127
634. 외국어대 정문 앞,37.59601974,127.0598297,634, 이문2동, 동대문구,61,127
635. 시조사 앞,37.58751678,127.0527725,635, 회기동, 동대문구,61,127
636. 세종대왕기념관 교차로,37.59090042,127.0425873,636, 청량리동, 동대문구,61,127
637. KAIST 경영대학 앞,37.59161377,127.0457916,637, 청량리동, 동대문구,61,127
638. 서울시립대 정보기술관,37.58300781,127.0609741,638, 전농2동, 동대문구,61,127
639. 서울시립대 후문,37.58512497,127.0609512,639, 전농2동, 동대문구,61,127
640. 동대문경찰서 교차로,37.58255005,127.0446014,640, 청량리동, 동대문구,61,127
641. 용두역 4번출구,37.57375336,127.0385361,641, 용신동, 동대문구,61,127
642. 신답역 사거리,37.57035446,127.0484314,642, 답십리1동, 동대문구,61,127
643. 동대문구민체육센터 (육교아래),37.56697083,127.074295,643, 장안1동, 동대문구,61,127
646. 장한평역 1번출구,37.56196594,127.0645065,646, 장안1동, 동대문구,61,127
648. 장안동위더스빌옆,37.56669998,127.0624237,648, 장안1동, 동대문구,61,127
650. 중랑교사거리,37.59153366,127.0677414,650, 휘경2동, 동대문구,61,127
652. 답십리 래미안엘파인아파트 입구,37.57653046,127.0659409,652, 답십리2동, 동대문구,61,127
654. 전농동 텃골공원,37.57762146,127.0521088,654, 전농1동, 동대문구,61,127
656. 영휘원 교차로,37.58723831,127.0431366,656, 청량리동, 동대문구,61,127
657. 동대문롯데캐슬아파트 앞,37.57573318,127.0484772,657, 전농1동, 동대문구,61,127
659. 제기동역 1번출구,37.57835007,127.0333862,659, 제기동, 동대문구,61,127
660. 동의보감타워,37.57799911,127.0376282,660, 용신동, 동대문구,61,127
661. 경희대학교 청운관,37.59460068,127.0519714,661, 회기동, 동대문구,61,127
663. 외대앞역 3번출구,37.59489059,127.0630264,663, 휘경1동, 동대문구,61,127
664. 서울시립대 건설공학관,37.58412933,127.0579376,664, 전농2동, 동대문구,61,127
665.이문동 쌍용아파트 정문,37.59960556,127.0686417,665, 이문1동, 동대문구,61,127
666.이문대성유니드아파트 앞,37.60362244,127.0708313,666, 이문1동, 동대문구,61,128
667.청량차도 육교 밑,37.58670807,127.0468826,667, 청량리동, 동대문구,61,127
668.서울축산농협(장안지점),37.56787109,127.068718,668, 장안1동, 동대문구,61,127
669.청계한신휴플러스앞 삼거리,37.57214737,127.0446091,669, 답십리1동, 동대문구,61,127
670.삼육서울병원 버스정류장,37.58968735,127.061409,670, 휘경2동, 동대문구,61,127
671.대광빌딩,37.57734299,127.0233765,671, 용신동, 동대문구,61,127
672.대광고등학교,37.57875061,127.024025,672, 용신동, 동대문구,61,127
673.안암골벽산아파트(후문),37.58407974,127.0310364,673, 안암동, 성북구,61,127
674.고대앞사거리 교통섬,37.58655167,127.0331421,674, 안암동, 동대문구,61,127
676.FITI시험연구원 앞,37.58143234,127.0354767,676, 제기동, 동대문구,61,127
678.장안힐스테이트(아) 앞,37.57655716,127.0743103,678, 장안2동, 동대문구,61,127
679.전농SK아파트 앞,37.57787704,127.0616837,679, 전농2동, 동대문구,61,127
680.꿈마루어린이도서관 앞,37.59238434,127.0574112,680, 이문2동, 동대문구,61,127
681.서울특별시 동부교육지원청(육교),37.5798378,127.0563736,681, 전농2동, 동대문구,61,127
700. KB국민은행 염창역 지점 앞,37.5468483,126.8727722,700, 목2동, 양천구,58,126
701. 목동사거리 부근,37.53280258,126.8639298,701, 목4동, 양천구,58,126
702. 목4동주민센터 옆,37.53254318,126.8687286,702, 목4동, 양천구,58,126
703. 오목교역 7번출구 앞,37.52362823,126.8752441,703, 목1동, 양천구,58,126
704. 남부법원검찰청 교차로,37.52325439,126.8649063,704, 신정4동, 양천구,58,126
706. 신정네거리역,37.5218811,126.8517532,706,신월2동, 양천구,58,126
708. 서울출입국관리사무소 앞,37.51897049,126.8699646,708, 신정2동, 양천구,58,126
709. 신정3동 현장민원실 앞,37.51158524,126.8415604,709, 신정3동, 양천구,57,125
710. 금옥여고보도육교,37.50971222,126.8441696,710, 신정3동, 양천구,58,125
711. 신일해피트리아파트 앞,37.51705933,126.8484879,711, 신정3동, 양천구,58,126
712. 강월초교입구 사거리,37.51699829,126.8383179,712, 신월7동, 양천구,57,126
713. 양서중학교 옆,37.53304672,126.8299561,713, 신월1동, 양천구,57,126
714. 한국SGI 양천문화회관 앞,37.532547,126.8308029,714, 신월1동, 양천구,57,126
716.신정6동 주민센터 인근,37.51731873,126.8643189,716, 신정6동, 양천구,58,126
719. 홍익병원앞 교차로,37.5303688,126.8642578,719, 목4동, 양천구,58,126
720. 서울강월초등학교 앞,37.5161972,126.8348999,720, 신월7동, 양천구,57,126
722. 경서농협 버스정류장(우리은행신정동지점방향),37.52151108,126.8573837,722, 신정1동, 양천구,58,126
723. SBS방송국,37.52916336,126.8727493,723, 목1동, 양천구,58,126
724. 계남공원 입구 주출입구 좌측,37.51059723,126.8573227,724, 신정3동, 양천구,58,125
725. 양강중학교앞 교차로,37.52433395,126.8505478,725, 신월2동, 양천구,58,126
726. 목동3단지 시내버스정류장,37.5343895,126.8695984,726, 목5동, 양천구,58,126
729. 서부식자재마트 건너편,37.51037979,126.8667984,729, 신정7동, 양천구,58,125
731. 서울시 도로환경관리센터,37.5298996,126.8765411,731, 목1동, 양천구,58,126
732. 신월중학교,37.53955078,126.8283005,732, 신월5동, 양천구,57,126
733. 신정이펜하우스314동,37.51409912,126.8310013,733, 신정3동, 양천구,57,126
734. 신트리공원 입구,37.51395035,126.8560562,734, 신정1동, 양천구,58,126
735. 영도초등학교,37.53637695,126.8715134,735, 목5동, 양천구,58,126
736. 오솔길공원,37.52219009,126.8367004,736, 신월7동, 양천구,57,126
737. 장수공원,37.52256012,126.8494797,737, 신정3동, 양천구,58,126
739. 신월사거리,37.53620148,126.8277969,739, 신월5동, 양천구,57,126
740. 으뜸공원,37.53636932,126.8317108,740,신월5동, 양천구,57,126
741. 화곡로 입구 교차로,37.53952026,126.8254013,741, 신월3동, 양천구,57,126
742. 등촌역 5번 출구 뒤,37.55073166,126.8645783,742, 목3동, 양천구,58,126
743. 현대6차아파트 101동 옆,37.50889969,126.8426819,743, 신정3동, 양천구,57,125
744. 신목동역 2번 출구,37.54384232,126.8825455,744, 목5동, 양천구,58,126
745. 강서초등학교,37.52228165,126.8396988,745, 신월4동, 양천구,57,126
746. 목동2단지 상가,37.53650284,126.8777466,746, 목5동, 양천구,58,126
747. 목동3단지 상가,37.53458023,126.8756485,747, 목5동, 양천구,58,126
748. 목동운동장,37.53025055,126.879303,748, 목1동, 양천구,58,126
749. 이대목동병원보도육교,37.53722763,126.8866119,749, 목5동, 양천구,58,126
750. 연의근린공원 건너편,37.51215744,126.8356247,750, 신정3동, 양천구,57,126
752. 성원2차 아파트,37.54218292,126.8633041,752, 목3동, 양천구,58,126
754. 목동1단지아파트 118동 앞,37.54114151,126.8766785,754, 목2동, 양천구,58,126
755. 목동1단지아파트 상가 앞,37.5378685,126.8814087,755, 목5동, 양천구,58,126
756. 목동주차장,37.52667999,126.8761673,756, 목1동, 양천구,58,126
757. 신정이펜하우스 1단지아파트 입구 사거리,37.51427841,126.828743,757, 신정3동, 양천구,57,126
758. 한사랑교회 앞,37.51472092,126.8591995,758, 신정7동, 양천구,58,126
759. 보아스아파트 앞,37.52407074,126.8386002,759, 신월4동, 양천구,57,126
760. 잣절보도육교 아래,37.50682068,126.8442993,760, 신정3동, 양천구,58,125
762. 오목로 무중력지대 앞,37.52474213,126.8776627,762, 목1동, 양천구,58,126
763. 목동11단지 아파트,37.51065826,126.8591614,763, 신정7동, 양천구,58,125
765. 오목교역 3번출구,37.52477646,126.8754807,765, 목1동, 양천구,58,126
766. 신목동역 3번출구,37.54394913,126.883461,766, 목5동, 양천구,58,126
767.신정숲속마을아파트,37.50574493,126.8363113,767,신정3동, 양천구,57,125
768.목동5단지아파트 501동,37.53566742,126.8815842,768, 목5동, 양천구,58,126
769.CBS방송국 앞,37.52785492,126.8746719,769,목1동, 양천구,58,126
770.목동역5번출구 교통정보센터 앞,37.52571487,126.8648682,770, 목1동, 양천구,58,126
771.목동아파트 703동 앞,37.52820587,126.870163,771, 목1동, 양천구,58,126
"773.염창역 3, 4번 출구 사이",37.54670715,126.8745728,773, 목2동, 양천구,58,126
774.등촌역 4번 출구 ,37.54950714,126.867218,774, 목3동, 양천구,58,126
775.세종그랑시아 앞(102동),37.53837585,126.8638306,775, 목3동, 양천구,58,126
776.목마공원,37.53874207,126.8856812,776, 목5동, 양천구,58,126
777.신월6차보람아파트 앞,37.53012848,126.8347778,777, 신월1동, 양천구,57,126
779. 신정1동 주민센터 앞,37.51854324,126.8538818,779, 신정1동, 양천구,58,126
780.신정교 하부,37.5173378,126.8776474,780, 신정2동, 양천구,58,126
781.신정보도육교 아래,37.51759338,126.8765564,781, 신정2동, 양천구,58,126
782.서남병원 후문,37.51167297,126.8327408,782, 신정3동, 양천구,57,125
"785.양천구청, 보건소 사잇길",37.51747513,126.8663254,785, 신정6동, 양천구,58,126
786.목동아파트 8단지 상가동 앞,37.52007294,126.8683014,786, 신정6동, 양천구,58,126
787.양천아파트 입구,37.50790405,126.862648,787, 신정7동, 양천구,58,125
788.양천구청역 2번출구 옆,37.51228714,126.8652802,788, 신정7동, 양천구,58,126
791.현대하이페리온,37.52490616,126.8697891,791, 목1동, 양천구,58,126
792.목동트라팰리스 웨스턴에비뉴,37.52537155,126.8709259,792, 목1동, 양천구,58,126
793.목동5단지아파트 534동,37.53302002,126.8778992,793, 목5동, 양천구,58,126
794.양천문화회관,37.51686478,126.8629608,794, 신정6동, 양천구,58,126
795.양천 해누리타운,37.51584244,126.8641129,795, 신정6동, 양천구,58,126
796.목동아파트 14단지 B상가 앞,37.5146637,126.8719406,796, 신정6동, 양천구,58,126
797.목동아파트 1422동 1434동 사잇길,37.51515579,126.8724899,797, 신정6동, 양천구,58,126
800. 목월공원 앞,37.53243256,126.9547424,800, 원효로2가, 용산구,59,126
802. 한강진역 2번 출구 앞,37.54115295,127.0022125,802, 한남동, 용산구,60,126
803. 한남초교 앞 보도육교,37.53813934,127.004097,803, 한남동, 용산구,60,126
805. 문배어린이공원 앞,37.53675842,126.9700012,805, 원효로1가, 용산구,60,126
806. 전자랜드 본관 앞,37.5330658,126.9607315,806, 한강로동, 용산구,60,126
807. 서울역 12번 출구 앞,37.55227661,126.9726868,807, 남영동, 용산구,60,126
808. 서빙고동 금호맨션 앞,37.520504,126.9897385,808,서빙고동, 용산구,60,126
809. 한남 유수지 복개주차장,37.53016663,127.0074387,809, 한남동, 용산구,60,126
810. 이태원지하보도,37.53841019,126.9866486,810, 용산2가동, 용산구,60,126
811. 녹사평역1번출구,37.53507996,126.9853821,811, 용산2가동, 용산구,60,126
812. 용산전쟁기념관,37.53483963,126.9776611,812, 남영동, 용산구,60,126
813. 삼각지역 3번출구,37.53351212,126.9722748,813, 한강로동, 용산구,60,126
815. LIG강촌아파트 103동앞,37.51850891,126.9787979,815, 이촌1동, 용산구,60,126
816. 신용산역 6번출구 앞,37.53014755,126.968483,816, 한강로동, 용산구,60,126
817. 삼각지역 4번출구 앞,37.53345108,126.9717331,817, 한강로동, 용산구,60,126
818. 숙명여대 입구 교차로,37.54489517,126.9693832,818, 청파동, 용산구,60,126
819. 선린인터넷 고등학교,37.54165268,126.9705048,819, 청파동, 용산구,60,126
820. 청파동입구 교차로,37.54902649,126.9719467,820, 남영동, 용산구,60,126
822. 이촌1동 마을공원,37.52202606,126.9661865,822, 이촌1동, 용산구,60,126
823. 효창동주민센터 앞,37.54232025,126.9619598,823, 청파동, 용산구,60,126
825. 서빙고동 주민센터 앞,37.52033615,126.9942627,825, 서빙고동, 용산구,60,126
826. 서울역 서부교차로2,37.55536652,126.9686432,826, 청파동, 용산구,60,126
827. 국군복지단,37.54188538,126.97966,827, 용산2가동, 용산구,60,126
828. 숙대입구역 8번,37.54407883,126.9720001,828, 남영동, 용산구,60,126
829. 한강대교 북단 교차로,37.52293015,126.9616928,829, 한강로동, 용산구,60,126
830. 강변삼성스위트아파트 앞,37.53442383,126.9485703,830, 원효로2가, 용산구,59,126
831. 이태원관광특구입구A(녹사평역쪽),37.53427887,126.9885635,831, 이태원1동, 용산구,60,126
832. 이촌1동 주민센터 뒤,37.5212822,126.973465,832, 이촌1동, 용산구,60,126
834. 효창공원앞역 3번출구 뒤,37.53900909,126.96138,834, 용문동, 용산구,60,126
835. 남영역 건너편,37.54198074,126.9715424,835, 남영동, 용산구,60,126
836. 현대자동차서비스 앞,37.53142166,126.9514999,836, 원효로2가, 용산구,59,126
837. 한남나들목 입구,37.52906036,127.0067291,837, 한남동, 용산구,60,126
838. 숙대입구역 4번출구,37.5444603,126.9723892,838, 남영동, 용산구,60,126
839. 보광동 삼성리버빌아파트 앞,37.5240097,127.0014496,839, 보광동, 용산구,60,126
840. 용산 파크타워 앞,37.52365112,126.9702683,840, 한강로동, 용산구,60,126
841. 신용산역 1번 출구,37.52960968,126.9688721,841, 한강로동, 용산구,60,126
843. 이태원관광특구B(용산구청쪽),37.53379822,126.9886704,843, 이태원1동, 용산구,60,126
844. 이촌2동 동원베네스트 아파트 앞,37.5271492,126.9551621,844, 한강로동, 용산구,59,126
845. 용산 선인상가,37.53269958,126.9643784,845, 한강로동, 용산구,60,126
846. 용산중학교,37.54650116,126.9809494,846, 후암동, 용산구,60,126
848. 삼각지12번 출구,37.53488922,126.9756241,848, 남영동, 용산구,60,126
849. 삼각지 자이아파트,37.53607941,126.9734192,849, 한강로동, 용산구,60,126
850. KCC용산월츠타워 ,37.53739929,126.9689255,850, 원효로1가, 용산구,60,126
851.효창 푸르지오 앞,37.54047775,126.9581146,851, 효창동, 용산구,59,126
852. 청암자이아파트 앞,37.53452682,126.9471817,852, 원효로2가, 용산구,59,126
853.용산역 맞은편,37.52848816,126.9658432,853, 한강로동, 용산구,60,126
854.HID 유족동지회 앞,37.53872681,127.0015488,854, 한남동, 용산구,60,126
855.이촌역5번출구 앞,37.52272415,126.9727707,855, 이촌1동, 용산구,60,126
857. 현대 안성타워,37.53502274,126.9980545,857, 이태원1동, 용산구,60,126
858.녹사평역3번 출구,37.53440857,126.9868927,858, 용산2가동, 용산구,60,126
859.남산공원 야외식물원 앞,37.54188538,126.9958649,859, 이태원2동, 용산구,60,126
860.LG한강 자이아파트 앞,37.52074814,126.9708252,860, 이촌1동, 용산구,60,126
863.이촌역2번 출구,37.52177048,126.977005,863, 한강로동, 용산구,60,126
864.순천향대학병원(한남오거리),37.53514099,127.0060043,864, 한남동, 용산구,60,126
865.하얏트호텔 앞,37.54079437,126.9978485,865, 이태원2동, 용산구,60,126
866.브라운스톤 남산아파트,37.551548,126.9768601,866, 남영동, 용산구,60,126
867.서빙고역 광장(1번출구),37.51990891,126.9892349,867, 서빙고동, 용산구,60,126
869.노들섬 동측 앞,37.51729584,126.9591446,869, 이촌1동, 용산구,59,126
870.노들섬 서측 앞,37.51731873,126.9582977,870, 이촌2동, 용산구,59,126
900. 은평예술회관,37.60394287,126.9276962,900, 녹번동, 은평구,59,128
902. 진관동 은빛초등학교,37.64310837,126.9182205,902, 진관동, 은평구,59,128
903. 은평뉴타운 아이파크,37.64586639,126.9273911,903, 진관동, 은평구,59,128
904. 은평뉴타운 푸르지오,37.64867401,126.9307022,904, 진관동, 은평구,59,128
905. 구파발역 2번출구,37.63623428,126.9189987,905, 진관동, 은평구,59,128
906. 연신내역 5번출구,37.61721039,126.9195786,906, 대조동, 은평구,59,128
907. CJ 드림시티,37.59949112,126.9168625,907,응암1동, 은평구,59,127
908. 구산역 4번출구,37.61318588,126.9173508,908, 갈현2동, 은평구,59,128
909. 백련산 힐스테이트 3차,37.58699417,126.9228821,909, 응암2동, 은평구,59,127
911. 은평평화공원(역촌역4번출구),37.60558319,126.9229355,911, 녹번동, 은평구,59,128
912. 응암오거리,37.58966064,126.9169464,912, 응암3동, 은평구,59,127
913. 이마트 버스정류장(서부경찰서 방면),37.60070038,126.9201279,913,응암1동, 은평구,59,127
914. 새절역 2번출구,37.59079742,126.9136505,914, 신사2동, 은평구,59,127
915. 증산역 4번출구,37.5843811,126.9098969,915, 증산동, 은평구,59,127
916. 평생학습관 앞,37.60784912,126.9213257,916, 대조동, 은평구,59,128
917. 녹번역 3번출구,37.60076141,126.9353714,917, 응암1동, 은평구,59,127
919. 서울혁신파크,37.60702515,126.9333115,919, 녹번동, 은평구,59,128
921. 신도고등학교,37.63001633,126.9190292,921, 진관동, 은평구,59,128
922. 연신내역 4번출구,37.61780167,126.9219666,922, 대조동, 은평구,59,128
923. 국민은행 연서지점,37.62094879,126.9256363,923, 불광1동, 은평구,59,128
924. 메뚜기다리,37.62851715,126.9295807,924, 불광2동, 은평구,59,128
925. 불광역 2번출구,37.60956573,126.9309769,925, 불광1동, 은평구,59,128
927. 연신내역 3번출구 인근,37.61785507,126.9225235,927, 불광1동, 은평구,59,128
928. 은평역사한옥박물관,37.64131546,126.9380417,928, 진관동, 은평구,59,128
930. 구 서부경찰서 건너편,37.60166168,126.9203033,930, 역촌동, 은평구,59,127
931. 역촌파출소,37.60473633,126.9153366,931, 역촌동, 은평구,59,128
932. 예일여중,37.61000443,126.9163971,932, 구산동, 은평구,59,128
933. 역촌종합시장 버스정류장(예일여고 방면),37.61248398,126.9148789,933, 구산동, 은평구,59,128
934. 신사동 성당,37.59714127,126.9095993,934, 신사1동, 은평구,59,127
937. 상림마을 롯데캐슬2단지 옆,37.64585114,126.9237976,937, 진관동, 은평구,59,128
938. 금암 문화공원,37.64468384,126.918457,938, 진관동, 은평구,59,128
939. 은평구청 교차로,37.60169983,126.9274216,939, 응암1동, 은평구,59,127
941. 은평뉴타운 도서관,37.63722229,126.9333038,941, 진관동, 은평구,59,128
942. 상림마을 생태공원,37.64408112,126.9292831,942, 진관동, 은평구,59,128
943. 은평구청 보건소,37.60240173,126.9286499,943, 녹번동, 은평구,59,127
945. 기자촌 사거리 A,37.63414001,126.9323425,945, 진관동, 은평구,59,128
946. 독바위역 ,37.61843872,126.9328842,946, 불광1동, 은평구,59,128
947. 연신내 선일하이츠빌 정류소,37.62266922,126.9199905,947, 불광2동, 은평구,59,128
948. 디지털미디어 시티역 4번출구(DMC역),37.57720184,126.9023514,948, 증산동, 은평구,59,127
949. 연신내역 1번 출구 ,37.61978149,126.9208069,949, 불광2동, 은평구,59,128
950. 구산역 2번 출구 예일여고 버스정류장,37.60980225,126.9167938,950, 구산동, 은평구,59,128
952. 서울연신중학교,37.62265015,126.9252472,952, 불광2동, 은평구,59,128
953. 서울연신초등학교,37.6257782,126.9288178,953, 불광2동, 은평구,59,128
954. 은평뉴타운구파발9단지,37.64260864,126.9214783,954, 진관동, 은평구,59,128
956. 응암시장교차로,37.59441376,126.9180145,956, 응암3동, 은평구,59,127
958. 본 서부병원 버스정류장(은평 세무서 방면),37.60036087,126.9228134,958, 응암1동, 은평구,59,127
959. 구파발10단지 인근,37.6436615,126.9145584,959, 진관동, 은평구,59,128
960. 구파발역 환승센터,37.63825226,126.9194565,960, 진관동, 은평구,59,128
961. 불광역 9번 출구,37.61096954,126.9298096,961, 불광1동, 은평구,59,128
962. 은평뉴타운 힐데스하임,37.63925934,126.9189072,962, 진관동, 은평구,59,128
963. 대호프라자아파트,37.61442947,126.932579,963, 불광1동, 은평구,59,128
964. 북한산힐스테이트 7차아파트,37.61654282,126.9251251,964, 불광1동, 은평구,59,128
965. 서울특별시 은평병원,37.59347916,126.9231873,965, 응암2동, 은평구,59,127
966. 서울혁신파크1,37.60944748,126.9346771,966, 불광1동, 은평구,59,128
967. 서울혁신파크2,37.60849762,126.9319992,967, 녹번동, 은평구,59,128
968. 은평뉴타운 상림마을 13단지,37.64208984,126.9294128,968, 진관동, 은평구,59,128
969. 은평 지웰테라스,37.64339447,126.9321365,969, 진관동, 은평구,59,128
971. 역촌 센트레빌 아파트,37.60232925,126.9065476,971, 역촌동, 은평구,59,127
973.제각말푸르지오 5-1단지 아파트,37.63734818,126.9358444,973, 진관동, 은평구,59,128
974.연신초등학교옆 마을마당,37.62672043,126.9290161,974, 불광2동, 은평구,59,128
975.백련산 힐스테이트상가앞,37.59036255,126.9230118,975, 응암2동, 은평구,59,127
976.진관고등학교앞,37.64350891,126.9241028,976, 진관동, 은평구,59,128
977.신도중학교앞,37.63310242,126.9315033,977, 진관동, 은평구,59,128
978.녹번 힐스테이트상가앞,37.60100937,126.9359283,978, 녹번동, 은평구,59,127
979.원풍빌라앞,37.59186172,126.9060822,979, 신사2동, 은평구,59,127
982. 녹번초등학교(서오릉로),37.60412598,126.925087,982, 녹번동, 은평구,59,128
984.상신초등학교앞 버스정류장,37.59580994,126.9102631,984, 신사1동, 은평구,59,127
985. 은평세무서 버스정류장(은평구청 방면),37.60119247,126.926384,985,응암1동, 은평구,59,127
989. 신응교(가좌로) 앞,37.59181213,126.9148331,989, 응암3동, 은평구,59,127
991.흥국사 정류장,37.6567688,126.942009,991, 진관동, 은평구,59,129
992.북한산입구 정류장,37.65828705,126.9452972,992, 진관동, 은평구,59,129
993.은평뉴타운 은뜨락아파트앞,37.63028717,126.9195633,993, 진관동, 은평구,59,128
994.북한산생태공원입구(교통섬),37.61050797,126.9385376,994, 불광1동, 은평구,59,128
995.은평다목적체육관,37.63140869,126.9254074,995, 진관동, 은평구,59,128
996.응암역2번출구 국민은행 앞,37.59996796,126.9157257,996, 역촌동, 은평구,59,127
1001. 광진교 남단 사거리(천호공원 방면),37.54179382,127.1247482,1001, 천호2동, 강동구,62,126
1002. 해공공원(천호동),37.5452652,127.1259384,1002, 천호2동, 강동구,62,126
1003. 해공도서관앞,37.54395676,127.1254883,1003, 천호2동, 강동구,62,126
1004. 삼성광나루아파트 버스정류장,37.55332947,127.1288681,1004, 암사1동, 강동구,62,126
1006. 롯데캐슬 115동앞,37.55486679,127.1427994,1006, 암사1동, 강동구,63,126
1007.암사동 선사유적지,37.55955887,127.1308746,1007, 암사2동, 강동구,62,127
1008. 암사역 3번출구(국민은행앞),37.54935455,127.1270828,1008, 천호2동, 강동구,62,126
1009. 천호역4번출구(현대백화점),37.53866577,127.1242447,1009, 천호2동, 강동구,62,126
1010. 강동세무서,37.53450775,127.1384049,1010, 길동, 강동구,63,126
1011. LIGA 아파트 앞,37.53474426,127.1352844,1011, 성내3동, 강동구,63,126
1012. 천호역효성해링턴타워 앞,37.53600693,127.1227264,1012, 성내2동, 강동구,62,126
1013. 강동구청역 1번 출입구,37.53071594,127.1209869,1013, 성내1동, 강동구,62,126
1015. 샛마을 근린공원,37.55003738,127.1469116,1015, 명일1동, 강동구,63,126
1016. 해뜨는 주유소옆 리엔파크 109동앞,37.55939865,127.1711807,1016, 강일동, 강동구,63,127
1017. 둔촌고교입구 교차로(길동주민센터 방면),37.53544617,127.1451874,1017, 길동, 강동구,63,126
1018. 둔촌 주공 GS 맞은편,37.52458954,127.1354218,1018, 둔촌1동, 강동구,63,126
1019. 다성이즈빌아파트(호원대 대각선 맞은편),37.52679443,127.1300583,1019, 성내1동, 강동구,62,126
1020. 강동경찰서,37.52825165,127.1268005,1020, 성내1동, 강동구,62,126
1021. 강일동 리슈빌 빌딩앞,37.56427383,127.1739731,1021, 강일동, 강동구,63,127
1022. 길동 사거리(초소앞),37.53377914,127.1379929,1022, 성내3동, 강동구,63,126
1023. 한국종합기술사옥 앞,37.54998398,127.1747055,1023, 상일2동, 강동구,63,126
1024.  강동구청 앞,37.52929688,127.1231537,1024, 성내1동, 강동구,62,126
1025. 상일초등학교,37.54684067,127.1725159,1025, 상일1동, 강동구,63,126
1027. 프라자 아파트 앞,37.53596115,127.1478195,1027, 길동, 강동구,63,126
1028. 포레스 주상복합 빌딩,37.53310776,127.1227722,1028, 성내2동, 강동구,62,126
1029. 성내어울터,37.53655624,127.1255341,1029, 성내2동, 강동구,62,126
1030. 미호 플랜트 앞,37.52703094,127.1220627,1030, 성내1동, 강동구,62,126
1031. 올림픽로 836(아리수로),37.55582047,127.1299133,1031, 암사3동, 강동구,62,127
1032. 선사고등학교,37.55672836,127.136261,1032, 암사3동, 강동구,63,127
1033. 고덕동 아남아파트,37.55793381,127.1447678,1033, 고덕1동, 강동구,63,127
1034. 고덕동 래미안 힐스테이트,37.5618782,127.1507874,1034, 고덕1동, 강동구,63,127
1036. 고덕동 주양쇼핑,37.55199051,127.1533127,1036, 명일2동, 강동구,63,126
1037. 강일리버파크 6단지,37.56256485,127.1776123,1037, 강일동, 강동구,63,127
1038. 강일 다솜 어린이 공원,37.56863785,127.1748047,1038, 강일동, 강동구,63,127
1039. 고덕초등학교,37.56129837,127.1678467,1039, 고덕2동, 강동구,63,127
1041. 묘곡초등학교,37.55916214,127.1533203,1041, 고덕1동, 강동구,63,127
1042. 강일리버파크 2~5단지,37.5685463,127.1770096,1042,강일동, 강동구,63,127
1044. 굽은다리역,37.54540634,127.1426773,1044, 천호1동, 강동구,63,126
1048. 둔촌어린이공원,37.53099442,127.1423721,1048, 둔촌2동, 강동구,63,126
1049. 강일리버파크 10단지,37.561203,127.1802673,1049,강일동, 강동구,63,127
1050.  둔촌역 3번 출입구,37.52678299,127.1355743,1050, 성내3동, 강동구,63,126
"1051. 강일중,선사고 버스정류장(신암중학교 방면)",37.55483627,127.1373215,1051, 암사1동, 강동구,63,126
1053. 동명근린공원 진입로 (아리수로),37.56254578,127.1644821,1053, 고덕2동, 강동구,63,127
1054. 말우물 어린이 공원,37.56002808,127.1696777,1054, 고덕2동, 강동구,63,127
1056. 강일리버파크 7~11단지,37.56335449,127.1790543,1056,강일동, 강동구,63,127
1057. 능골근린공원,37.55580902,127.1737442,1057, 상일2동, 강동구,63,127
1058. 고덕숲 아이파크 1,37.55348206,127.1650543,1058, 상일1동, 강동구,63,126
1059. 래미안 강동팰리스(102동),37.53822708,127.1317444,1059, 천호3동, 강동구,62,126
1060. 천일초교 사거리,37.5446701,127.1326752,1060, 천호1동, 강동구,62,126
1061. 천호초교 입구 사거리(일주빌딩),37.54689789,127.1346664,1061, 천호1동, 강동구,63,126
1062. 고덕숲 아이파크 2,37.5510788,127.1625977,1062, 상일1동, 강동구,63,126
1063.강동롯데캐슬퍼스트 아파트(관리동),37.55666351,127.1427383,1063, 암사3동, 강동구,63,127
1064.중앙보훈병원역 1번출구,37.52779388,127.147644,1064, 둔촌2동, 강동구,63,126
1065.보훈병원 후문옆(더 원커피),37.53120804,127.1492691,1065, 둔촌2동, 강동구,63,126
1066.생태공원앞 교차로(조명탑),37.5377655,127.1520157,1066, 길동, 강동구,63,126
1067.한영중고앞사거리,37.54903412,127.1560516,1067, 상일1동, 강동구,63,126
1068.명일파출소,37.5536499,127.1562271,1068, 상일1동, 강동구,63,126
1070.(시립)고덕평생학습관,37.55570221,127.1579208,1070, 고덕2동, 강동구,63,127
1072.고덕역 5번출구,37.55486298,127.1537247,1072, 명일2동, 강동구,63,126
1073. SSTS 몰 앞,37.54114532,127.1410523,1073, 길동, 강동구,63,126
1074.대명초교입구 사거리,37.54683685,127.1491623,1074, 명일2동, 강동구,63,126
1075.천동초교 삼거리,37.54136276,127.1371841,1075, 천호3동, 강동구,63,126
1076. 천동초교입구사거리 버스정류장(십자성마을 방면),37.5398941,127.141037,1076, 길동, 강동구,63,126
1077.강동역 1번출구 앞,37.53627014,127.1324692,1077, 천호3동, 강동구,62,126
1078.둔촌사거리,37.52197647,127.1336212,1078, 성내3동, 강동구,62,126
1079.강일동입구교차로,37.56184387,127.170845,1079, 강일동, 강동구,63,127
1080.엘웨딩,37.5368309,127.128418,1080, 성내2동, 강동구,62,126
1081.트레빌빌딩,37.53699875,127.1295319,1081, 천호3동, 강동구,62,126
1082.중앙보훈병원역3번출구,37.52956009,127.1490097,1082, 둔촌2동, 강동구,63,126
1083.광문고교사거리(아이파크),37.56036758,127.1565933,1083, 고덕1동, 강동구,63,127
1084. 윤선생빌딩(JYP사옥),37.5239296,127.1291275,1084, 성내3동, 강동구,62,126
1085.래미안 솔베뉴(고덕로),37.55456924,127.145874,1085, 명일1동, 강동구,63,126
1086.래미안 솔베뉴(구천면로),37.55059814,127.1454544,1086, 명일1동, 강동구,63,126
1088.풍납사거리(강동),37.52812195,127.1195221,1088, 성내1동, 강동구,62,126
1089.고덕 래미안힐스테이트(201동),37.56060028,127.146698,1089, 고덕1동, 강동구,63,127
1090.상일동역 2번출구 앞,37.5567894,127.1661453,1090, 상일1동, 강동구,63,127
1101. 상사마을 버스정류장(아라대교방면),37.58161163,126.7985992,1101, 방화2동, 강서구,57,127
1102. 방화사거리 마을버스 버스정류장,37.57364273,126.8118057,1102, 방화1동, 강서구,57,127
1103. 방화역 4번출구앞,37.57710648,126.8119965,1103, 방화3동, 강서구,57,127
1105. 방화근린공원,37.58162308,126.8126526,1105, 방화3동, 강서구,57,127
1106. 신방화사거리,37.57256317,126.8164215,1106, 방화1동, 강서구,57,127
1108. 공항시장역 2번출구 뒤,37.56387329,126.8106079,1108, 공항동, 강서구,57,127
1109. 공항시장역 4번출구,37.56334686,126.8104858,1109, 공항동, 강서구,57,127
1110. 공항중학교앞,37.56220245,126.816246,1110, 공항동, 강서구,57,127
1111. 마곡엠밸리6_7단지 마곡중학교,37.56698227,126.8218002,1111, 방화1동, 강서구,57,127
1112. 마곡엠밸리4단지 정문,37.56857681,126.8247757,1112, 가양1동, 강서구,57,127
1113. 서남환경공원 버스정류장,37.57312393,126.8223877,1113, 가양1동, 강서구,57,127
1117. 등촌5단지아파트 버스정류장,37.55819702,126.8442612,1117, 등촌3동, 강서구,58,127
1118. 증미역 3번출구뒤(등촌두산위브센티움오피스텔),37.55746078,126.8614578,1118, 가양3동, 강서구,58,126
1119. 염창동 한마음아파트 앞,37.55425262,126.8675613,1119, 염창동, 강서구,58,126
1120. 대림경동아파트앞,37.564785,126.8546448,1120, 가양2동, 강서구,58,127
1121. 가양레포츠센터 앞,37.55947876,126.8643799,1121, 가양3동, 강서구,58,127
1122. 황금내근린공원,37.56192398,126.8641663,1122, 염창동, 강서구,58,127
1124. 발산역 6번 출구 뒤,37.55817795,126.8384552,1124, 우장산동, 강서구,57,127
1125. 명덕고교입구(영종빌딩),37.55291367,126.8365707,1125, 우장산동, 강서구,57,126
1126. 우장산역 1번출구옆(우장산아이파크105동앞),37.54890823,126.8365631,1126, 우장산동, 강서구,57,126
1127. 화곡역 버스정류장,37.54098129,126.8385468,1127, 화곡1동, 강서구,57,126
1128. 화곡역 6번출구,37.54141235,126.8402252,1128, 화곡1동, 강서구,57,126
1129. 화곡역 1번 출구 앞,37.542099,126.8402176,1129, 우장산동, 강서구,57,126
1130. 화곡본동시장 버스정류장,37.54275131,126.8426209,1130, 화곡본동, 강서구,57,126
1132. 등촌역 7번출구,37.55110931,126.8637085,1132, 등촌2동, 강서구,58,126
1135. 강서구의회,37.54653168,126.8625488,1135, 등촌2동, 강서구,58,126
1136. 등촌2파출소,37.54478836,126.8619995,1136, 등촌2동, 강서구,58,126
1137. 등촌2동주민센터,37.54126358,126.8633728,1137,등촌2동, 강서구,58,126
1139. 용문사 버스정류장,37.53852081,126.8634338,1139, 등촌2동, 강서구,58,126
1140. 목동사거리 버스정류장,37.53139877,126.8636093,1140, 화곡4동, 강서구,58,126
1141. 곰달래 문화복지센터 A,37.52906036,126.8484802,1141, 화곡8동, 강서구,58,126
1145. 곰달래 문화복지센터 B,37.52891922,126.8480835,1145, 화곡1동, 강서구,58,126
1148. 볏골공원,37.54146957,126.84478,1148, 화곡본동, 강서구,58,126
1149. 신방화역환승주차장,37.56728363,126.8182755,1149, 방화1동, 강서구,57,127
1150. 송정역 1번출구,37.56153107,126.8106995,1150, 공항동, 강서구,57,127
1151. 마곡역1번출구,37.56020737,126.8241425,1151, 공항동, 강서구,57,127
1152. 마곡역교차로,37.55831146,126.8265228,1152, 발산1동, 강서구,57,127
"1153. 발산역 1번, 9번 인근 대여소",37.55894852,126.8371735,1153, 가양1동, 강서구,57,127
1155. 기쁜우리복지관,37.56925964,126.8484192,1155, 가양2동, 강서구,58,127
1157. 강서구청,37.55065918,126.8497696,1157, 화곡6동, 강서구,58,126
1158. 가양역 8번출구,37.56103516,126.8548126,1158, 가양2동, 강서구,58,127
1159. 서서울모터리움 앞,37.56585312,126.8465958,1159, 가양1동, 강서구,58,127
1160. 양천향교역 7번출구앞,37.56768036,126.8408966,1160, 등촌3동, 강서구,57,127
1161. 강서면허시험장 앞,37.54969406,126.819664,1161, 발산1동, 강서구,57,126
1162. 공항초등학교건너편,37.56267929,126.8204727,1162, 공항동, 강서구,57,127
1163. 방화동강서기동대앞,37.57049942,126.8200836,1163, 방화1동, 강서구,57,127
1165. 마곡중학교 후문,37.56844711,126.8216476,1165, 방화1동, 강서구,57,127
1166. 강서구립등빛도서관,37.56256866,126.8424606,1166, 등촌3동, 강서구,57,127
1167. 마곡수명산파크3단지 교차로,37.55350876,126.8258667,1167, 발산1동, 강서구,57,126
1168. 마곡엠밸리10단지 앞,37.56029129,126.8187561,1168, 공항동, 강서구,57,127
1169. 염창역 1번 출구,37.54719925,126.8744888,1169, 염창동, 강서구,58,126
1170. 강서구보건소,37.54917908,126.8687973,1170, 염창동, 강서구,58,126
1171. 염창동 새마을금고 건너편,37.55004883,126.8731613,1171, 염창동, 강서구,58,126
1172. 가양3동 주민센터,37.56124878,126.8605804,1172, 가양3동, 강서구,58,127
1173. 강서구청사거리(SH타워),37.55673599,126.8530731,1173, 등촌1동, 강서구,58,126
1174. 강서구청사거리(부민병원),37.55661392,126.8511658,1174, 등촌3동, 강서구,58,126
1175. 대한항공 인력개발센터,37.55437851,126.8575363,1175, 등촌1동, 강서구,58,126
1177. 수명중․고교,37.55010986,126.8236771,1177, 발산1동, 강서구,57,126
1178. 개화산역 2번 출구,37.57247162,126.8061676,1178, 방화2동, 강서구,57,127
1180. 마곡엠밸리 15단지(1502동) 건너편,37.55746841,126.8297195,1180, 발산1동, 강서구,57,126
1181. 농수산식품공사 (강서지사),37.55104446,126.8184967,1181, 발산1동, 강서구,57,126
1182. KBS 스포츠월드,37.55687714,126.8488083,1182, 등촌3동, 강서구,58,126
1183. KC 대학교,37.54832077,126.8534012,1183, 화곡6동, 강서구,58,126
1184. 마곡13단지,37.55644989,126.815979,1184, 공항동, 강서구,57,126
1185. 등촌9단지,37.56290054,126.8494721,1185, 등촌3동, 강서구,58,127
1186. 송정중학교,37.55472946,126.8160934,1186, 공항동, 강서구,57,126
1187. 강서수산물도매시장,37.55302048,126.818367,1187, 발산1동, 강서구,57,126
1188. 롯데중앙연구소,37.57138062,126.8283386,1188, 가양1동, 강서구,57,127
1190. 마곡역 교차로(2번출구),37.5605011,126.8266525,1190, 공항동, 강서구,57,127
"1191. 마곡역 버스정류장(마곡나루역1번출구, 웰튼병원 방면)",37.5602417,126.8271637,1191, 공항동, 강서구,57,127
1192. 마곡수명산파크 209동 건너편,37.55545044,126.8268967,1192, 발산1동, 강서구,57,126
1193. 마곡센트럴타워 1차,37.55947113,126.832077,1193, 가양1동, 강서구,57,127
1195. 코오롱One&Only타워,37.56412888,126.8343124,1195, 가양1동, 강서구,57,127
1196. 서울식물원(문화센터) 건너편,37.56824112,126.8358307,1196, 가양1동, 강서구,57,127
1197. 엠펠리체 호텔 건너편,37.5602417,126.8358078,1197, 가양1동, 강서구,57,127
1198. LG 사이언스파크,37.56254959,126.8274384,1198, 가양1동, 강서구,57,127
1199. 우장산역 3번출구,37.54782104,126.8361282,1199, 발산1동, 강서구,57,126
1200. 개화광역환승센터,37.57844925,126.7989731,1200,방화2동, 강서구,57,127
1201. 가락시장역 3번 출구,37.49317932,127.1185455,1201, 가락본동, 송파구,62,125
1203. 밀리아나2빌딩 앞,37.49372864,127.1206207,1203, 가락본동, 송파구,62,125
1204. 거여역 3번출구,37.49334335,127.1447296,1204, 거여2동, 송파구,63,125
1205. 종합운동장역 4번출구,37.51042938,127.071373,1205, 잠실7동, 송파구,61,126
1206. 9호선종합운동장역 9번출구,37.51128006,127.0782394,1206, 잠실7동, 송파구,62,126
1207. 마천중앙시장,37.49975586,127.152504,1207, 마천2동, 송파구,63,125
1208. 풍납현대아파트쉼터,37.52974701,127.1199646,1208, 풍납2동, 송파구,62,126
1209. 잠실나루역 (2번 출구 쪽),37.52045059,127.1042023,1209, 행정동, 송파구,62,126
1210. 롯데월드타워(잠실역2번출구 쪽),37.51312637,127.1009598,1210, 잠실6동, 송파구,62,126
1212. 송파역 2번 출구앞,37.49941254,127.1128693,1212, 송파2동, 송파구,62,125
1213. 백토공원 앞,37.50831985,127.1332169,1213, 가락본동, 송파구,62,125
1214. 오금역 7번 출구 인근,37.50259399,127.1276474,1214, 가락본동, 송파구,62,125
1215. 올림픽공원역 1번출구 앞,37.51657104,127.1315384,1215, 오륜동, 송파구,62,126
1217. 송파파인타운 7단지,37.47930527,127.1297989,1217, 장지동, 송파구,62,125
1218. 방이역 4번출구,37.50896835,127.1258392,1218, 방이1동, 송파구,62,125
1220. 잠실근린공원,37.50569153,127.0840378,1220, 잠실본동, 송파구,62,125
1221. 삼전역 4번출구,37.50419998,127.087532,1221, 잠실본동, 송파구,62,125
1222. 잠실새내역 5번 출구 뒤,37.51198196,127.0850525,1222, 잠실2동, 송파구,62,126
1224. 아시아지하보도 2번 출구,37.51216888,127.0789337,1224, 잠실2동, 송파구,62,126
1226. 잠실4동 주민센터 옆,37.52007675,127.1123657,1226, 행정동, 송파구,62,126
1227. 거여역 8번출구 뒤,37.49312592,127.1438217,1227, 거여1동, 송파구,63,125
1228. 마천사거리 ,37.49769974,127.1462021,1228, 거여1동, 송파구,63,125
1229. 송파체육문화회관 앞,37.49068832,127.1431274,1229, 거여1동, 송파구,63,125
1230. 송파중학교 정문,37.49567032,127.1305924,1230, 가락2동, 송파구,62,125
1231. 잠실역 6번출구,37.51408768,127.0990295,1231, 잠실3동, 송파구,62,126
1232. 잠실주공 521동 건너편,37.51184082,127.0956879,1232, 잠실3동, 송파구,62,126
1233. 잠실3거리(갤러리아팰리스),37.51050949,127.0933685,1233, 잠실3동, 송파구,62,126
1235. 잠실트리지움310동 옆,37.50887299,127.0871658,1235, 잠실3동, 송파구,62,125
1239. 문정 법조단지3,37.48084259,127.1180115,1239, 문정2동, 송파구,62,125
1240. 문정 법조단지4,37.48057556,127.1185684,1240, 문정2동, 송파구,62,125
1241. 문정 법조단지5,37.48123932,127.1197968,1241, 문정2동, 송파구,62,125
1242. 문정 법조단지6,37.48163223,127.1191635,1242, 문정2동, 송파구,62,125
1243. 문정 법조단지7,37.4845314,127.120163,1243, 문정2동, 송파구,62,125
1244. 문정 법조단지8,37.48153687,127.1221237,1244, 문정2동, 송파구,62,125
1245. 문정 법조단지9,37.47946548,127.1253281,1245, 문정2동, 송파구,62,125
1246. 문정 법조단지10,37.47750854,127.1263275,1246, 문정2동, 송파구,62,125
1247. 문정 법조단지11,37.4788208,127.1235123,1247, 문정2동, 송파구,62,125
1248. 방이초등학교,37.51396179,127.1216736,1248, 방이1동, 송파구,62,126
1250.문정2동 주민센터,37.48987198,127.1108398,1250, 문정2동, 송파구,62,125
1251. 석촌역 2번출구,37.50593185,127.1077499,1251, 송파1동, 송파구,62,125
1253. 오금역 3번 출구 뒤,37.50165176,127.1281815,1253, 가락2동, 송파구,62,125
1256. 문정현대아파트 교차로,37.49113083,127.1258087,1256, 가락본동, 송파구,62,125
1257. 가락시장역 사거리,37.49209976,127.1177521,1257, 문정2동, 송파구,62,125
1258. 가락미륭아파트 앞,37.49319839,127.1289978,1258, 가락2동, 송파구,62,125
1259. 방이역 1번출구,37.50898361,127.1265945,1259, 오금동, 송파구,62,125
1260. 방이동 한양3차아파트 옆,37.50630188,127.1213989,1260, 방이1동, 송파구,62,125
1262. 송파여성문화회관 앞,37.50580215,127.1097183,1262, 송파1동, 송파구,62,125
1263. 장지공영차고지,37.48054123,127.1370163,1263, 위례동, 송파구,63,125
1264. 천호역 10번 출구 앞,37.53858185,127.1228027,1264, 풍납1동, 송파구,62,126
1265. 문정동 근린공원,37.48598862,127.1247635,1265, 문정1동, 송파구,62,125
1266. 문정동 글샘 공원,37.47880936,127.1200028,1266, 문정2동, 송파구,62,125
1267. 올림픽공원 남2문 앞,37.51424026,127.1230698,1267, 오륜동, 송파구,62,126
1268. 몽촌토성역 1번출구 옆,37.51728821,127.1141968,1268, 오륜동, 송파구,62,126
1269. 리센츠아파트 ,37.51194382,127.091217,1269, 잠실2동, 송파구,62,126
1271. 송파도서관,37.49998474,127.1353912,1271, 오금동, 송파구,63,125
1274. 영파여고 앞,37.53284836,127.121048,1274, 풍납2동, 송파구,62,126
1275. 거여초등학교 옆,37.50458908,127.1393662,1275, 오금동, 송파구,63,125
1277. 성내7교,37.50562668,127.1364212,1277, 오금동, 송파구,63,125
1278. 송파구청 교차로,37.51579666,127.1068192,1278, 방이2동, 송파구,62,126
1279. 마천금호어울림 1차아파트 건너편,37.49751663,127.1546783,1279, 마천1동, 송파구,63,125
1280. 송파파크데일 2단지입구 앞 주차장,37.49565887,127.1571732,1280, 마천1동, 송파구,63,125
1282. 송파소방서 맞은편(성내4교),37.49987411,127.1414795,1282, 거여1동, 송파구,63,125
1283. 오금공원 사거리,37.50541306,127.131691,1283, 오금동, 송파구,62,125
1285. 위례별 유치원 뒤,37.4774704,127.1445923,1285, 위례동, 송파구,63,125
1286. 위례중앙푸르지오 1단지 앞,37.47437668,127.1406708,1286, 위례동, 송파구,63,125
1287. 위례아이파크 101동 맞은편,37.47746658,127.14151,1287, 위례동, 송파구,63,125
1288. 문정중교 사거리,37.48799896,127.1310883,1288, 장지동, 송파구,62,125
1289. 풍납토성 서성벽터B,37.53147125,127.1110916,1289, 풍납2동, 송파구,62,126
1290. 위례송파꿈에그린아파트24단지 앞 성벽 다리 밑,37.47458267,127.1375427,1290, 위례동, 송파구,63,125
1291. 서울체육고등학교 앞,37.52193832,127.1318665,1291, 풍납2동, 송파구,62,126
1295. 잠실역 8번출구,37.51396179,127.1003037,1295, 잠실6동, 송파구,62,126
1299. 송파소방서 (방이119안전센터),37.51987839,127.1367111,1299, 오륜동, 송파구,63,126
1300. 오륜사거리,37.50693893,127.1392212,1300, 송파구, 서울특별시,63,125
1302. 한성대입구역6번출구 뒤,37.58876419,127.0063095,1302, 성북동, 성북구,60,127
1303. 돈암초교 입구,37.59169388,127.012497,1303, 성북동, 성북구,60,127
1304. 만해공원,37.59440231,126.9923096,1304, 성북동, 성북구,60,127
1305. 성북구청,37.58932877,127.0164337,1305, 삼선동, 성북구,60,127
1306. 한성대입구역2번출구,37.58844757,127.0067062,1306, 삼선동, 성북구,60,127
1308. 안암로터리 버스정류장 앞,37.58259201,127.0289764,1308, 안암동, 성북구,61,127
1314. 정릉꿈에그린1단지 201동 앞,37.60243988,127.0116882,1314, 정릉2동, 성북구,60,127
1315. 고려사대부속중고 정문,37.60776138,127.0032806,1315, 정릉3동, 성북구,60,128
1316. 고려사대부속중고 건너편 ,37.60726166,127.0028381,1316,정릉3동, 성북구,60,128
1318. 길음역 3번출구 뒤,37.60308456,127.0247879,1318, 길음1동, 성북구,61,128
1319. 종암사거리 분수대,37.6030426,127.0332718,1319, 월곡1동, 성북구,61,128
1321. 국민은행 종암동지점 앞,37.59328842,127.0366669,1321, 종암동, 성북구,61,127
1322. 래미안라센트아파트 103동 앞,37.59806824,127.0392761,1322, 종암동, 성북구,61,127
1323. 월곡역 입구 육교 밑,37.60043335,127.0402069,1323, 종암동, 성북구,61,127
1325. 상월곡역 4번출구,37.60580826,127.0477371,1325, 월곡2동, 성북구,61,128
1326. 상월곡역 1번출구,37.60606766,127.0473175,1326, 월곡2동, 성북구,61,128
1328. 월곡역 3번출구,37.6026268,127.0416336,1328, 월곡2동, 성북구,61,128
1332. 석계역 5번출구 건너편,37.61355591,127.0660934,1332, 석관동, 성북구,61,128
1333. 석관초등학교 앞,37.61052322,127.0597992,1333, 석관동, 성북구,61,128
1334. 석관동주민센터 앞,37.61299896,127.0613098,1334, 석관동, 성북구,61,128
1336. 성북3교 위,37.59125137,127.0140076,1336, 삼선동, 성북구,60,127
1337. 돈암성당 옆,37.59038162,127.0171356,1337, 동선동, 성북구,60,127
1338. 용문2교 옆,37.5868988,127.020752,1338, 안암동, 성북구,61,127
1339. 삼성전자서비스 성북센터,37.610569,127.0335083,1339, 월곡1동, 성북구,61,128
1340. 광운초등학교 앞,37.61784363,127.0550003,1340, 장위3동, 성북구,61,128
1342. 성북쉼터 앞,37.59261703,126.9979324,1342, 성북동, 성북구,60,127
1343. 한성대7번출구 앞,37.58924866,127.0073776,1343, 성북동, 성북구,60,127
1344. 아리랑시네센터 앞,37.60028839,127.0137024,1344, 돈암2동, 성북구,60,127
1346. 길음8골어린이공원 옆,37.60897827,127.0202484,1346, 길음1동, 성북구,61,128
1347. 길음래미안아파트817동 상가 앞,37.60710526,127.0214996,1347, 길음1동, 성북구,61,128
1348. 성북제일새마을금고 본점 앞,37.60475159,127.0227585,1348, 길음1동, 성북구,61,128
1349. 월계2교 버스정류장 앞,37.62382889,127.0502014,1349, 장위3동, 성북구,61,128
1351. 안암2교 옆,37.5794487,127.0241928,1351, 안암동, 성북구,61,127
1352. e 편한세상 보문아파트 내,37.58388138,127.0170975,1352, 보문동, 성북구,60,127
1353. 금호어울림센터힐 내,37.60083008,127.0235519,1353, 돈암1동, 성북구,61,127
1354. 고려대학교 2번출구,37.5907135,127.0361939,1354, 안암동, 성북구,61,127
1355. 보문2교,37.58869934,127.0189133,1355, 안암동, 성북구,61,127
1357. 북한산보국문역,37.61207199,127.0081329,1357, 정릉4동, 성북구,60,128
1358. 정릉도서관 앞,37.60478973,127.010582,1358, 정릉2동, 성북구,60,128
1360. 정릉역,37.60309601,127.013504,1360, 정릉2동, 성북구,60,128
1361. 홍익중고 입구,37.59296799,127.0022354,1361, 성북동, 성북구,60,127
1362. 보문역6번출구 앞,37.58519745,127.0196686,1362, 보문동, 성북구,61,127
1363. 보문4교 인근,37.58375168,127.0219498,1363, 안암동, 성북구,61,127
1364. 성북동 치안센터 앞,37.59017181,127.0040894,1364, 성북동, 성북구,60,127
1365. 선잠단지 앞,37.5933609,126.9990921,1365, 성북동, 성북구,60,127
1366. 일신초등학교 옆,37.59972,127.0403824,1366, 종암동, 성북구,61,127
1367. 길음문화복합미디어센터,37.60429764,127.0226135,1367, 길음1동, 성북구,61,128
1368. 성신여대입구 교차로,37.59139633,127.0201569,1368, 동선동, 성북구,61,127
1370. 복자사랑 피정의 집,37.59453964,126.9952087,1370, 성북동, 성북구,60,127
1372. KEB은행 고대점,37.58644485,127.031601,1372, 안암동, 성북구,61,127
1373. 성북구보건소 건너편,37.60235596,127.0390778,1373, 월곡2동, 성북구,61,127
1375. 생명의 전화 종합복지관 앞 교차로,37.60390854,127.0373764,1375,월곡1동, 성북구,61,128
1376. 한국과학기술연구원 중문,37.59730911,127.0437851,1376, 월곡2동, 성북구,61,127
1377. 한국과학기술연구원 북문,37.60418701,127.0454941,1377, 월곡2동, 성북구,61,128
1379.길음뉴타운푸르지오아파트 3단지,37.60929489,127.0184784,1379, 길음1동, 성북구,60,128
1381.석계역 4번출구 뒤,37.61478424,127.0670013,1381, 석관동, 성북구,61,128
1382.래미안월곡아파트 입구,37.60866547,127.0362701,1382, 월곡1동, 성북구,61,128
1384.성신여대입구역 5번출구,37.59282684,127.0162888,1384, 동선동, 성북구,60,127
1385.성신여대입구역 3번출구 앞,37.59236526,127.0162888,1385, 삼선동, 성북구,60,127
1386.동선고가차도 초입,37.59415817,127.0189667,1386, 동선동, 성북구,61,127
1388. 돈암초교입구 버스정류장(한성대입구역 방면),37.59088135,127.0117035,1388, 삼선동, 성북구,60,127
1390.석관래미안아트리치,37.60646057,127.0616226,1390, 석관동, 성북구,61,128
1391.성북청소년센터,37.61688232,127.0560684,1391, 장위3동, 성북구,61,128
1392.돈암삼성풍림아파트,37.5970993,127.0226288,1392, 돈암1동, 성북구,61,127
1393.돈암육교 하단,37.59818268,127.0211792,1393, 돈암1동, 성북구,61,127
1394.길음뉴타운 래미안9단지,37.60242462,127.0199814,1394, 정릉1동, 성북구,61,127
1395.래미안장위포레카운티(102동),37.61817932,127.0518341,1395, 장위3동, 성북구,61,128
1396.래미안장위퍼스트하이(513동),37.61844254,127.0514526,1396, 장위1동, 성북구,61,128
1401. 극동늘푸른아파트,37.61473846,127.0763626,1401, 묵2동, 중랑구,61,128
1402. 금란주차장 앞,37.60007095,127.1023331,1402, 망우본동, 중랑구,62,127
1403. 중화빌딩 앞 (동부시장),37.59424973,127.0765762,1403, 중화2동, 중랑구,61,127
1404. 동일로 지하차도,37.59529877,127.0800324,1404, 중화2동, 중랑구,62,127
1405. 망우역 1번출구,37.59909821,127.0929489,1405, 상봉1동, 중랑구,62,127
1407. 먹골역 1번출구 뒤,37.61151123,127.0778885,1407, 묵1동, 중랑구,62,128
1408. 먹골역 6번출구 앞,37.61072159,127.0774765,1408, 묵2동, 중랑구,62,128
1410. 면목 대원칸타빌아파트,37.57778168,127.0901871,1410, 면목7동, 중랑구,62,127
1411. 상봉시장앞 교차로 한성빌딩 앞,37.59254074,127.0867386,1411, 면목본동, 중랑구,62,127
1414. 사가정역 2번출구,37.58098984,127.0882416,1414, 면목3·8동, 중랑구,62,127
1416. 상봉역 3번출구,37.59521866,127.0859985,1416, 상봉2동, 중랑구,62,127
1418. 새솔초등학교,37.61743927,127.1090164,1418,신내1동, 중랑구,62,128
1420. 신내어울공원 앞,37.61394501,127.097702,1420, 신내1동, 중랑구,62,128
1421. 신내역 4번출구,37.61246109,127.1033783,1421, 신내1동, 중랑구,62,128
1422. 신내우디안아파트 1단지,37.62009811,127.1064606,1422, 신내1동, 중랑구,62,128
1424. 양원역 2번출구,37.6063118,127.1077423,1424, 망우본동, 중랑구,62,128
1425. 신성미소지움아파트,37.58745956,127.0959702,1425, 면목3·8동, 중랑구,62,127
1426. 면목도시개발아파트 1동 앞,37.57358932,127.0868225,1426, 면목4동, 중랑구,62,127
1427. 용마산역 1번출구,37.57429886,127.0869141,1427, 면목4동, 중랑구,62,127
1428. 원묵고등학교,37.61602402,127.085968,1428, 묵1동, 중랑구,62,128
1429. 장안중학교,37.59995651,127.0800018,1429, 중화1동, 중랑구,62,127
1430. 중랑구청,37.60615158,127.092598,1430, 신내2동, 중랑구,62,128
1431. 중랑구청 사거리,37.60649872,127.0954514,1431, 신내1동, 중랑구,62,128
1435. 능산삼거리,37.60868073,127.1007919,1435, 신내1동, 중랑구,62,128
1436. 동원베네스트 건물 앞,37.60810089,127.101181,1436, 신내1동, 중랑구,62,128
1437. 늘푸른공원 앞,37.5834198,127.0799255,1437, 면목5동, 중랑구,62,127
1438. 홈플러스 신내점 앞,37.61616898,127.093483,1438, 신내2동, 중랑구,62,128
1440. 면목2동 사거리,37.58637238,127.0800705,1440, 면목5동, 중랑구,62,127
1441. 신내능말공원,37.61670685,127.11026,1441, 신내1동, 중랑구,62,128
1442. 중랑구청 중화동 별관 앞,37.59859085,127.0798187,1442, 중화2동, 중랑구,62,127
1444. 면목4치안센터,37.57402802,127.0805435,1444, 면목4동, 중랑구,62,127
1445. 용마지구대 A,37.5799408,127.0793991,1445, 면목5동, 중랑구,62,127
1446. 중랑전화국 교차로,37.59130096,127.0803299,1446, 면목2동, 중랑구,62,127
1447. 면목역 3번출구,37.58890152,127.0872803,1447, 면목본동, 중랑구,62,127
1448. 코스트코 상봉점,37.59732056,127.089798,1448, 상봉2동, 중랑구,62,127
1449. 상봉역 1번출구,37.59655762,127.0858383,1449, 상봉1동, 중랑구,62,127
1450. 화랑대역 7번출구,37.61963654,127.0850449,1450, 묵1동, 중랑구,62,128
1451. 중랑세무서,37.59275818,127.07267,1451, 상봉2동, 중랑구,61,127
1452. 겸재교 진입부,37.58565521,127.0750504,1452, 면목2동, 중랑구,61,127
1453. 중랑캠핑숲,37.60460281,127.1092529,1453, 망우본동, 중랑구,62,128
1454. 한국전력공사(동대문 중랑지사),37.6073494,127.0785904,1454, 묵1동, 중랑구,62,128
1455. 상봉역 2번 출구,37.59632874,127.0858994,1455, 상봉2동, 중랑구,62,127
1456. 상아빌딩(우림시장 교차로),37.59511185,127.1003265,1456, 망우3동, 중랑구,62,127
1457. 동원사거리,37.58975983,127.0932388,1457, 면목본동, 중랑구,62,127
1458. 상봉터미널2,37.59733963,127.0930862,1458, 망우본동, 중랑구,62,127
1459. 용마한신아파트사거리,37.58034897,127.0926514,1459, 면목7동, 중랑구,62,127
1461.동양엔파트 앞,37.593853,127.0750732,1461, 중화2동, 중랑구,61,127
1462.동부시장 북문 앞,37.59386826,127.0765228,1462, 상봉2동, 중랑구,61,127
1463.중랑구민회관,37.57407761,127.0850067,1463, 면목4동, 중랑구,62,127
1464.중화역 4번출구,37.60305405,127.0790024,1464, 중화2동, 중랑구,62,128
1466.두산대림아파트 삼거리,37.61882401,127.0875702,1466, 묵1동, 중랑구,62,128
1467.sk신내 주유소앞(용마산로),37.61362076,127.1011505,1467, 신내1동, 중랑구,62,128
1468.먹골역 7번 출구,37.6114769,127.0773926,1468, 묵2동, 중랑구,62,128
1469.먹골역 4번출구,37.60982132,127.0781326,1469, 묵1동, 중랑구,62,128
1470.중화동 우리은행 앞,37.60520172,127.0785828,1470, 묵2동, 중랑구,62,128
1471.동양쇼핑 정류소 앞,37.61535263,127.0784912,1471, 묵1동, 중랑구,62,128
1472.영성빌딩(PAT),37.60408401,127.0792313,1472, 중화1동, 중랑구,62,128
1473.중랑역 1번 출구(중화문화복지센터),37.59489059,127.0749512,1473, 중화2동, 중랑구,61,127
1474.서울중랑우체국,37.59581375,127.08284,1474, 상봉1동, 중랑구,62,127
1477.면목삼익아파트 앞,37.57598495,127.0796051,1477, 면목4동, 중랑구,62,127
1478.홈플러스 상봉점 앞,37.59832764,127.0922699,1478, 상봉1동, 중랑구,62,127
1479.면목 홈플러스 2 ,37.58105469,127.0820923,1479, 면목5동, 중랑구,62,127
1480. 용마지구대 B,37.58111191,127.080101,1480, 면목5동, 중랑구,62,127
"1501. 미아역 3번,4번 출구 사이",37.62607956,127.0264816,1501, 송천동, 강북구,61,128
1503. 강북구청사거리(수유역 8번출구),37.63926315,127.0267258,1503, 수유3동, 강북구,61,128
1504. 삼양시장오거리,37.62415695,127.0186234,1504, 송천동, 강북구,60,128
1506. 강북문화예술회관,37.64032745,127.0133591,1506, 인수동, 강북구,60,128
1509. 서울북부수도사업소,37.63437653,127.0357513,1509, 번1동, 강북구,61,128
1510. 번동주공5단지 관리사무소 앞,37.63371658,127.0355148,1510, 번2동, 강북구,61,128
1511. 번동 금호어울림아파트102동앞,37.63112259,127.0360336,1511, 번2동, 강북구,61,128
1512. 강북중학교 앞,37.64473724,127.0265656,1512, 수유3동, 강북구,61,128
1513. 강북구청 뒷편,37.63967133,127.0251999,1513, 수유3동, 강북구,61,128
1514. 강북구청 사거리 버스정류소 앞,37.63880539,127.0283585,1514, 번1동, 강북구,61,128
1515. 송천동 주민센터,37.61828613,127.0240479,1515, 송천동, 강북구,61,128
1516. 우이초등학교 후문 옆,37.63858795,127.0159073,1516, 인수동, 강북구,60,128
1518. 수유2동은행빌딩 앞,37.64308548,127.0161667,1518, 수유2동, 강북구,60,128
1519. 장미원시장 건너편,37.64545059,127.0156174,1519, 수유2동, 강북구,60,128
1520. 수유중앙시장,37.63986206,127.022789,1520, 수유3동, 강북구,61,128
1525. 미아동 복합청사,37.62714005,127.0266953,1525, 미아동, 강북구,61,128
1526. 강북종합시장 앞,37.64173889,127.0246277,1526, 수유3동, 강북구,61,128
1527. 미아역 1번 출구 뒤,37.62733459,127.0260544,1527, 번1동, 강북구,61,128
1528. 삼각산동 주민센터,37.61503601,127.0206986,1528, 삼각산동, 강북구,61,128
1529. 미아동 한국전력공사,37.63018036,127.02491,1529, 미아동, 강북구,61,128
1530. 광산사거리,37.64355087,127.0223465,1530, 수유2동, 강북구,61,128
1531. 미아사거리 1번 출구,37.61395645,127.0302506,1531, 송중동, 강북구,61,128
1532. 번3동 주민센터 교차로,37.62635422,127.0474472,1532, 번3동, 강북구,61,128
"1533. 번동 주공3, 4단지 교차로",37.62991714,127.0409164,1533, 번3동, 강북구,61,128
1535. 효성인텔리안 앞,37.6362915,127.0233765,1535, 수유3동, 강북구,61,128
1536. 번동 두산위브 101동 옆,37.63626099,127.0321732,1536, 번1동, 강북구,61,128
1537. 북한산 우이역,37.66366577,127.0124283,1537, 우이동, 강북구,60,129
1538. 솔밭공원역,37.65615845,127.0131378,1538, 우이동, 강북구,60,129
1539. 4.19민주묘지역,37.64967346,127.0134506,1539, 수유2동, 강북구,60,129
1540. 가오리역,37.64167023,127.0168839,1540, 수유2동, 강북구,60,128
1541. 삼양역,37.62652969,127.0180588,1541, 삼양동, 강북구,60,128
1542. 삼양사거리역,37.62155151,127.0203705,1542, 송천동, 강북구,61,128
1543. 수유1동 주민센터,37.63018799,127.0177383,1543, 수유1동, 강북구,60,128
1546. 송천동우체국,37.61545944,127.0297012,1546, 송중동, 강북구,61,128
1547. 꿈의숲 롯데캐슬,37.61775208,127.0357056,1547, 송중동, 강북구,61,128
1548. 북서울 꿈의숲 서문,37.62268829,127.0378113,1548, 번3동, 강북구,61,128
1550.삼각산아이원아파트(105동 옆),37.61522293,127.0185089,1550, 삼각산동, 강북구,60,128
1551.4.19탑 앞,37.64686203,127.008812,1551, 우이동, 강북구,60,128
1552. 강북구청사거리,37.63920212,127.0272369,1552, 번1동, 강북구,61,128
1553.서울북부고용노동지청,37.63520432,127.0339661,1553, 번2동, 강북구,61,128
1554.번동사거리,37.63539124,127.0345535,1554, 번1동, 강북구,61,128
1558.강북문화정보도서관,37.62552643,127.037323,1558, 번3동, 강북구,61,128
1560. 도봉세무서 앞,37.6198082,127.0285263,1560, 송천동, 강북구,61,128
1564.4.19민주묘지역 1번출구,37.64959717,127.0138474,1564, 수유2동, 강북구,60,129
1565.수유사거리,37.63561249,127.022995,1565, 인수동, 강북구,61,128
1569.수유역2번출구,37.63796997,127.0259018,1569, 번1동, 강북구,61,128
1571.북서울 꿈의 숲 입구,37.62673187,127.0387726,1571, 번3동, 강북구,61,128
1572. 우이동 먹거리마을,37.66446304,127.0118408,1572,우이역 회전교차로, 우이동,60,129
1573.현대성우아파트 옆,37.61666489,127.02211,1573, 송천동, 강북구,61,128
1574.송중초등학교 옆,37.61669922,127.0304947,1574, 송중동, 강북구,61,128
1601. 석계역 문화광장 내 자전거 보관소,37.61518097,127.0646439,1601, 월계1동, 노원구,61,128
1602. 광운대역 앞,37.62266159,127.0618973,1602, 월계1동, 노원구,61,128
1605. 헬스케어,37.63162231,127.061615,1605, 월계3동, 노원구,61,128
1606. 태릉입구역 3번출구 ,37.61917114,127.0749283,1606, 공릉1동, 노원구,61,128
1608. 공릉역 1번 출구 앞,37.62661362,127.0727539,1608, 공릉1동, 노원구,61,128
1610. 화랑대역 2번출구 앞,37.62036896,127.0836411,1610, 공릉2동, 노원구,62,128
1611. 과기대 입구(우),37.62994003,127.0765533,1611, 공릉1동, 노원구,61,128
1616. 하계2동 공항버스정류장 옆,37.63510895,127.0683289,1616, 하계1동, 노원구,61,128
1619. 중계동 하나프라자빌딩 앞(중1-1),37.64902115,127.0764084,1619, 중계1동, 노원구,61,129
1620. 중계동 노원구민체육센터 옆(중1-2),37.64820862,127.070221,1620, 중계1동, 노원구,61,128
1625. 상계역 3번출구,37.65999985,127.0729675,1625, 중계4동, 노원구,61,129
1627. 수락산역 4번출구,37.67694092,127.0550995,1627, 상계1동, 노원구,61,129
1628. 노일초등학교 앞,37.67361832,127.0552521,1628, 상계1동, 노원구,61,129
1630. 수연빌딩 앞,37.67625046,127.0555039,1630, 상계1동, 노원구,61,129
1634. 당고개공원 대여소,37.66846085,127.0771484,1634, 상계3·4동, 노원구,61,129
"1635. 상계3,4동 주민센터 대여소",37.67271042,127.0831604,1635, 상계3·4동, 노원구,62,129
1636. 상계주공2단지 버스정류장 옆,37.64921188,127.0617676,1636, 상계6·7동, 노원구,61,129
1637. KT 전화국 버스정류장 옆,37.65470123,127.0634003,1637, 상계6·7동, 노원구,61,129
1639. 희성오피앙,37.68031311,127.055069,1639, 상계1동, 노원구,61,129
1640. 한내근린공원 북측,37.62386322,127.0684891,1640, 월계3동, 노원구,61,128
1641. 한내근린공원 남측,37.62155533,127.0695114,1641, 월계3동, 노원구,61,128
1642. 서울여대 남문,37.62531662,127.0881348,1642, 공릉2동, 노원구,62,128
1643. 태릉입구역 8번출구,37.61736679,127.0752106,1643, 공릉1동, 노원구,61,128
1646. 삼육대 입구,37.63848877,127.1079025,1646, 공릉2동, 노원구,62,128
1650. 중계근린공원내,37.63957977,127.0651016,1650, 중계2·3동, 노원구,61,128
1651. 상계동 우방유쉘아파트 앞,37.67237473,127.0559921,1651, 상계1동, 노원구,61,129
1652. 파르코 앞,37.68000031,127.0555801,1652, 상계1동, 노원구,61,129
1653. 노원역1번출구,37.65620041,127.0636215,1653, 상계2동, 노원구,61,129
1654. 당고개입구 오거리,37.66379166,127.0754471,1654, 상계3·4동, 노원구,61,129
1655. 공릉1단지아파트,37.63111115,127.0701599,1655, 공릉1동, 노원구,61,128
1656. 중앙하이츠 아파트 입구,37.65501785,127.0675049,1656, 상계2동, 노원구,61,129
1657. 노원구청 ,37.65404892,127.0573273,1657, 상계6·7동, 노원구,61,129
1659. 중계동 을지중학교,37.65032959,127.0716019,1659, 중계1동, 노원구,61,129
1660. 서울시립과학관,37.64207077,127.076622,1660, 하계1동, 노원구,61,128
1661. 당현천근린공원,37.64963913,127.0656052,1661, 상계6·7동, 노원구,61,129
1662. 노원역7번출구,37.65421677,127.0592117,1662, 상계6·7동, 노원구,61,129
1663. 동해문화예술관앞,37.61938095,127.0578537,1663, 월계1동, 노원구,61,128
1665. 양지근린공원앞,37.64699554,127.0764008,1665, 하계1동, 노원구,61,128
1666. 노원소방서인근,37.65578079,127.0717773,1666, 상계2동, 노원구,61,129
1667. 중계중학교,37.65449905,127.0743866,1667, 중계4동, 노원구,61,129
1668. 중계역 6번출구,37.64556503,127.0633469,1668, 중계2·3동, 노원구,61,128
1669. 중계역 3번출구,37.64352798,127.0652237,1669, 중계2·3동, 노원구,61,128
1670. 노원경찰서교차로,37.64340973,127.0718384,1670, 하계1동, 노원구,61,128
1671. 인덕대학교,37.62934875,127.0548248,1671, 월계2동, 노원구,61,128
1672. 상계동수락리버시티,37.68859863,127.0534058,1672, 노원구, 의정부시,61,129
1674. 서울북부고용센터앞,37.65354919,127.0580826,1674, 상계6·7동, 노원구,61,129
1675. 월계문화체육센터,37.62694168,127.05513,1675, 월계2동, 노원구,61,128
1677. 육군사관학교  앞,37.62316513,127.0904999,1677, 공릉2동, 노원구,62,128
1678. 성서대학교 밀알관,37.6484375,127.0644455,1678, 중계2·3동, 노원구,61,129
1679. 삼육대 도서관,37.6428299,127.1066666,1679, 공릉2동, 노원구,62,128
1680. 삼육대 제3과학관,37.64265442,127.1083832,1680, 공릉2동, 노원구,62,128
1681. 현대6차 아파트,37.64580154,127.0822601,1681, 중계본동, 노원구,62,128
1682. 중계종합사회복지관 교차로,37.65745544,127.0755463,1682, 중계4동, 노원구,61,129
1683. 노원문화예술회관,37.65045929,127.0808868,1683, 중계본동, 노원구,62,129
1684. 태릉입구역 5번출구,37.61832047,127.0756302,1684, 공릉1동, 노원구,61,128
1685. 불암고등학교 앞 횡단보도,37.64818954,127.0804825,1685, 중계본동, 노원구,62,129
1686. 상계주공10단지 종합상가 앞,37.66114044,127.0580521,1686, 상계10동, 노원구,61,129
1688. 마들역 7번출구,37.66566086,127.0572968,1688, 상계10동, 노원구,61,129
1689. 마들역 3번출구,37.66524887,127.0578919,1689, 상계9동, 노원구,61,129
1690. 도봉운전면허시험장 버스정류장 옆,37.6577301,127.0593109,1690, 상계10동, 노원구,61,129
1691. 노원정보도서관,37.66070938,127.0653305,1691, 상계10동, 노원구,61,129
1692. 온곡초교 교차로,37.66418839,127.0660095,1692, 상계9동, 노원구,61,129
1693. 원자력 병원,37.62818909,127.0821075,1693, 공릉2동, 노원구,62,128
1696.수락리버시티4단지,37.68645096,127.0528336,1696, 상계1동, 노원구,61,129
1697.상계주공2단지 219동,37.65024948,127.0571518,1697, 상계6·7동, 노원구,61,129
1702. 녹천역 1번출구 앞,37.64582062,127.0504227,1702, 창1동, 도봉구,61,128
1703. 도봉산광역환승센터앞 ,37.68972015,127.0451965,1703, 도봉1동, 도봉구,61,129
1705. 도봉구청 정문앞,37.66922379,127.0465164,1705, 도봉2동, 도봉구,61,129
1706. 방학동우체국 건너편,37.66566467,127.0426712,1706, 방학1동, 도봉구,61,129
1707. 도봉구민회관,37.65446091,127.0385132,1707, 창5동, 도봉구,61,129
1708. 도봉보건소사거리,37.65682983,127.0398483,1708, 창5동, 도봉구,61,129
1709. 쌍문역4번출구 주변,37.65012741,127.035347,1709, 쌍문3동, 도봉구,61,129
1713. 쌍문동 이안아파트 앞,37.65165329,127.0284882,1713, 쌍문4동, 도봉구,61,129
1714. 도봉문화정보도서관 삼거리,37.64463043,127.0446091,1714, 창1동, 도봉구,61,128
1715. 서울특별시교육청도봉도서관,37.65317917,127.0127869,1715, 쌍문1동, 도봉구,60,129
1716. 창동역 1번출구 건너편,37.65420151,127.0507278,1716, 창4동, 도봉구,61,129
1719. 신도봉사거리 버스정류장,37.67328262,127.0439911,1719, 도봉1동, 도봉구,61,129
1720. 도봉구청 옆(중랑천변),37.66867065,127.0479813,1720, 방학1동, 도봉구,61,129
1721. 창동역 2번출구 ,37.65301514,127.0469971,1721, 창4동, 도봉구,61,129
1722. 창동청소년수련관,37.65779877,127.0500488,1722, 창4동, 도봉구,61,129
1723. 방학동학마을도서관,37.66207886,127.0277176,1723, 방학3동, 도봉구,61,129
1725. 창1동주민센터,37.6475029,127.0433121,1725, 창1동, 도봉구,61,128
1726. 삼익세라믹아파트교차로,37.65858841,127.0352097,1726, 쌍문2동, 도봉구,61,129
1727. 서울도봉초등학교인근,37.67867661,127.0407639,1727, 도봉1동, 도봉구,61,129
1728. 서울북부지방법원,37.67771912,127.046814,1728, 도봉2동, 도봉구,61,129
1729. 도봉한신아파트 버스정류장,37.68400955,127.0457916,1729, 도봉1동, 도봉구,61,129
1730. 도봉산역 교차로 앞,37.68759155,127.0455017,1730, 도봉1동, 도봉구,61,129
1731. 도봉고등학교 맞은편,37.6876297,127.0422134,1731, 도봉1동, 도봉구,61,129
1732. 방학역사거리,37.66759872,127.0429993,1732, 방학1동, 도봉구,61,129
1733. 방학사거리 (봄마당 앞),37.66297913,127.0419388,1733, 방학1동, 도봉구,61,129
1734. 쌍문현대1차아파트 108동 앞,37.65814972,127.0326691,1734, 쌍문4동, 도봉구,61,129
"1735. 도봉역 1,2번 출구사이 건너편",37.67911911,127.0449829,1735, 도봉1동, 도봉구,61,129
1736. 버스정류장 앞,37.65224075,127.0370636,1736, 창5동, 도봉구,61,129
1737. 신창시장,37.63970184,127.0388336,1737, 창2동, 도봉구,61,128
1741. 제일강산수산입구,37.64519882,127.0329819,1741, 창2동, 도봉구,61,128
1742. 북한산 코오롱 하늘채,37.64889145,127.0230179,1742, 쌍문1동, 도봉구,61,129
1743.창동19단지아파트 관리사무소앞,37.65039062,127.0521927,1743, 창4동, 도봉구,61,129
1744.도봉소방서 옆,37.66480255,127.0430298,1744, 방학1동, 도봉구,61,129
1749. ESA아파트 상가 앞,37.66627121,127.04599,1749, 방학1동, 도봉구,61,129
1750. 창포원 남쪽 입구,37.68826675,127.0488968,1750, 도봉2동, 도봉구,61,129
1751. 창원초등학교 교차로,37.6521225,127.0417023,1751, 창5동, 도봉구,61,129
1752. 창동 주공 4단지 입구 옆,37.64548111,127.0485764,1752, 창1동, 도봉구,61,128
1754. 창동시장입구 사거리,37.64689636,127.033432,1754, 쌍문3동, 도봉구,61,128
1756.서울북부광역등기국,37.65148544,127.0443192,1756, 창5동, 도봉구,61,129
1757.솔밭공원역 1번출구 앞,37.65568542,127.013382,1757, 쌍문1동, 도봉구,60,129
1758.솔밭공원역 1번출구 주변,37.65727997,127.0137558,1758, 쌍문1동, 강북구,60,129
1759.서울북부지방법원 앞,37.67721939,127.0486374,1759, 도봉2동, 도봉구,61,129
1761.방학중학교 앞,37.66562271,127.0310898,1761, 방학2동, 도봉구,61,129
1762.북한산 한신휴플러스APT앞,37.65533829,127.0424194,1762, 창5동, 도봉구,61,129
1765.쌍문역 1번출구 주변,37.64966965,127.035614,1765, 창1동, 도봉구,61,129
1767.방학초등학교 앞,37.66250992,127.0332794,1767, 방학2동, 도봉구,61,129
1768.신동아타워 버스정류소,37.66208267,127.0287476,1768, 방학3동, 도봉구,61,129
1770.도봉한신아파트 주변,37.68473816,127.0500412,1770, 도봉2동, 도봉구,61,129
1771.성원APT버스정류소,37.65796661,127.0300903,1771, 쌍문4동, 도봉구,61,129
1772.시립도봉노인복지관 버스정류소,37.65805054,127.035759,1772, 쌍문2동, 도봉구,61,129
1774.정의여중고 버스정류소,37.65134811,127.034729,1774, 쌍문2동, 도봉구,61,129
1775.신원리베르텔 앞,37.65128708,127.0455475,1775, 창5동, 도봉구,61,129
1804. 독산역 2번출구 자전거주차장,37.46652985,126.8887177,1804, 가산동, 금천구,58,125
1805. 서울디지털운동장 앞,37.48228836,126.8777695,1805, 가산동, 금천구,58,125
1806. 에이스하이엔드타워9차 앞,37.48621368,126.8786392,1806, 구로1동, 구로구,58,125
1808. 에이스하이엔드타워8차 앞,37.47320938,126.8849411,1808, 가산동, 금천구,58,125
1809. LG전자 별관동(호서대 벤처타워 맞은편),37.47077942,126.8851547,1809, 가산동, 금천구,58,125
1812. 갑을그레이트밸리 앞,37.47903061,126.8872986,1812, 가산동, 금천구,58,125
1814. 두산위브아파트 옆 상가건물 앞,37.47422028,126.8941269,1814, 가산동, 금천구,58,125
1819. 금천구청 앞 자전거거치대,37.45647812,126.8959274,1819, 시흥1동, 금천구,58,124
1820. 신한은행 시흥대로금융센터지점,37.4433403,126.9033585,1820, 시흥3동, 금천구,59,124
1821. 홈플러스 시흥점 맞은편 다비치안경 앞,37.45145798,126.9021149,1821, 시흥1동, 금천구,59,124
1822. 서울 시흥동우체국 앞,37.45299149,126.9009094,1822, 시흥1동, 금천구,59,124
1823. 상신정비공업 앞,37.4589119,126.8985901,1823, 독산1동, 금천구,58,124
1824. 독산근린공원 입구,37.46455002,126.883728,1824, 금천구, 서울특별시,58,124
1825. 한신아파트 앞 육교 아래,37.45470047,126.8910523,1825,독산1동, 금천구,58,124
1826. 한신코아 앞,37.45684052,126.8883438,1826, 독산1동, 금천구,58,124
1827. 독산보도육교 앞 자전거 보관소,37.45672607,126.8930664,1827, 독산1동, 금천구,58,124
1828. 한양수자인아파트 앞,37.47531891,126.8988876,1828, 독산3동, 금천구,58,125
1829. 홈플러스 금천점 앞,37.4691391,126.8972015,1829, 독산1동, 금천구,58,125
1830. 빅마켓 금천점 앞,37.4702301,126.8950729,1830, 독산1동, 금천구,58,125
1831. 한국전력 구로금천지사 앞,37.47249985,126.8979569,1831, 독산1동, 금천구,58,125
1833. 독산역 1번출구 A,37.46654129,126.8902817,1833, 독산1동, 금천구,58,125
1834. 월드메르디앙 벤처센터 2차,37.47908401,126.8790436,1834, 가산동, 금천구,58,125
1835. STX V타워,37.47706985,126.8844299,1835, 가산동, 금천구,58,125
1836. 금천구립 독산도서관,37.46740341,126.9081421,1836, 독산4동, 금천구,59,125
1839. 수출의 다리 아래,37.47743607,126.8861542,1839, 가산동, 금천구,58,125
1840. 솔브레인이엔지 뒤편,37.47555161,126.8884583,1840, 가산동, 금천구,58,125
1841. 가산동 주민센터,37.4769516,126.8918686,1841, 가산동, 금천구,58,125
1842. 한울중학교,37.46257401,126.9068604,1842, 시흥4동, 금천구,59,124
1843. 독산고등학교,37.47709656,126.9111328,1843, 독산3동, 금천구,59,125
1845. 롯데캐슬골드파크1차 서문,37.460289,126.892189,1845, 독산1동, 금천구,58,124
1846. 롯데캐슬골드파크1차 동문,37.46017075,126.8960419,1846,독산1동, 금천구,58,124
1847. 독산주공 14단지 버스정류소,37.46093369,126.8871689,1847, 금천구, 서울특별시,58,124
1848. 벽산 디지털밸리 5차,37.4762764,126.8853912,1848, 가산동, 금천구,58,125
1849. 대륭포스트타워5차,37.48135376,126.88694,1849, 가산동, 금천구,58,125
1850. 코오롱테크노밸리,37.48015976,126.8863678,1850, 가산동, 금천구,58,125
1851. 가산디지털단지 9번출구 인근,37.48123169,126.881485,1851, 가산동, 금천구,58,125
1853. 서울디자인직업전문학교 앞,37.47248077,126.8958664,1853, 독산1동, 금천구,58,125
1854. 가산아네스트 오피스텔 앞,37.47817993,126.8974075,1854, 독산1동, 금천구,58,125
1855. 성지아파트 옆 도로변,37.45132065,126.8976212,1855, 시흥1동, 금천구,58,124
1856. 모두의학교,37.47840881,126.9073715,1856, 독산3동, 금천구,59,125
1857. 주공14단지,37.46055984,126.8870926,1857, 금천구, 서울특별시,58,124
"1858. 500번,507번 버스 종점 앞",37.43727112,126.9026871,1858, 시흥3동, 금천구,59,124
1859. 대륭테크노타운 18차,37.4679985,126.8868408,1859, 가산동, 금천구,58,125
1861.IBK기업은행 석수역 지점 앞,37.4369812,126.9032974,1861, 시흥3동, 금천구,59,124
1862.스타즈호텔독산 빌딩 앞,37.46134567,126.897583,1862, 독산1동, 금천구,58,124
1863.위너스 스포츠클럽 골프연습장옆,37.46053696,126.8986054,1863, 독산2동, 금천구,58,124
1864.산호시티빌 옆,37.45652008,126.8995514,1864, 시흥1동, 금천구,58,124
1865.금천구청앞(M빌딩),37.45633316,126.8964539,1865, 시흥1동, 금천구,58,124
1866.서울안천초등학교 옆,37.45777893,126.8894272,1866, 독산1동, 금천구,58,124
1867.대륭포스트타워6차 앞,37.48088837,126.8838043,1867, 가산동, 금천구,58,125
1868.우리은행 시흥남자동화점 앞,37.44785309,126.9028854,1868, 시흥1동, 금천구,59,124
1869.롯데캐슬골드파크3차 301동 앞,37.45901871,126.8967133,1869,독산1동, 금천구,58,124
1870.독산3동주민센터 앞,37.47507095,126.9033585,1870, 독산3동, 금천구,59,125
1901. 신도림동주민센터 앞,37.50733185,126.8797302,1901, 신도림동, 구로구,58,125
1904. 도림천역 1번 출구 앞,37.51424026,126.8828735,1904, 신도림동, 구로구,58,126
1906. 신도림역 1번 출구 앞,37.50971985,126.8900986,1906, 신도림동, 구로구,58,125
1907. 구일우성(아) 육교 밑,37.48963165,126.8762589,1907, 구로1동, 구로구,58,125
1908. 해원리바파크 육교 밑,37.49528503,126.8721619,1908, 구로1동, 구로구,58,125
1910. 낙원교회 맞은편,37.49750519,126.8843765,1910, 구로2동, 구로구,58,125
1911. 구로디지털단지역 앞,37.48493958,126.9013214,1911, 구로3동, 구로구,59,125
1912. 한신휴아파트 앞,37.48880005,126.8906632,1912, 구로3동, 구로구,58,125
1914. 대림역4번출구,37.49440384,126.8944473,1914, 구로4동, 구로구,58,125
1916. 구로중학교앞,37.49414062,126.8899841,1916, 구로4동, 구로구,58,125
1920. 서울미래초등학교 사거리,37.50437927,126.888298,1920, 구로5동, 구로구,58,125
1924. 삼부르네상스파크빌,37.47874069,126.8950958,1924, 구로3동, 구로구,58,125
1925. 동양미래대학교 정문 옆,37.49988937,126.8676987,1925, 고척1동, 구로구,58,125
1928. 고척스카이돔구장 광장,37.49946976,126.8684006,1928, 고척1동, 구로구,58,125
1929. 고척근린공원 고척도서관 앞,37.5038147,126.8519592,1929, 고척2동, 구로구,58,125
1930. 개봉지구대 개봉치안센터,37.49768448,126.8537293,1930, 개봉1동, 구로구,58,125
1931. 개봉역2번출구 A,37.49499512,126.8582535,1931, 개봉1동, 구로구,58,125
1933. 개봉푸르지오아파트 상가,37.50170517,126.8472824,1933, 개봉1동, 구로구,58,125
1936. 개봉역 1번 출구 자전거보관서쪽,37.49428177,126.8592148,1936, 개봉2동, 구로구,58,125
1937. 한진아파트 입구,37.4860611,126.8520126,1937, 개봉3동, 구로구,58,125
1941. 오류동역 2번출구,37.49367142,126.8437042,1941, 오류2동, 구로구,58,125
1943. 온수역 북측,37.49279022,126.8245239,1943, 수궁동, 구로구,57,125
1946. 구로역 광장,37.50311661,126.8803864,1946, 구로2동, 구로구,58,125
1951. 천왕이펜하우스 4단지 후문,37.48070526,126.8389587,1951, 오류2동, 구로구,57,125
1952. 천왕연지타운2단지 앞,37.48210526,126.845726,1952, 오류2동, 구로구,58,125
1953. 천왕역 4번출구 뒤,37.48638535,126.8392105,1953, 오류2동, 구로구,57,125
1955. 디지털입구 교차로,37.48288345,126.9010391,1955, 구로3동, 구로구,59,125
1956. 동아1차APT105동 버스정류장(신도림중학교 방면),37.51000977,126.8820496,1956, 신도림동, 구로구,58,125
1957. 구일고등학교 정문 ,37.49340057,126.8743286,1957, 구로1동, 구로구,58,125
1958. 강서수도사업소민원센터,37.49578094,126.8901215,1958, 구로4동, 구로구,58,125
1959. 구로구의회 앞,37.49645615,126.8895874,1959, 구로5동, 구로구,58,125
1960. 구로거리공원 동측(신도림역 방면),37.50284958,126.8894806,1960, 구로5동, 구로구,58,125
1961. 신도림테크노근린공원,37.50818253,126.8913345,1961,구로5동, 구로구,58,125
1962. 가리봉동주민센터,37.48160172,126.8927994,1962, 구로3동, 구로구,58,125
1964. 원메디타운 앞,37.49789047,126.864502,1964, 고척1동, 구로구,58,125
1965. 삼환로즈빌아파트 105동 옆,37.49724197,126.8591232,1965, 개봉1동, 구로구,58,125
1966. 한마을아파트 정문상가,37.49649811,126.8630981,1966, 개봉1동, 구로구,58,125
1967. 참새공원(백곡경노당),37.5051384,126.8443375,1967, 개봉1동, 구로구,58,125
1968. 동인오피스텔 건너편 소공원,37.49848175,126.8475037,1968, 개봉1동, 구로구,58,125
1969. 궁동생태공원,37.50190353,126.8289642,1969, 수궁동, 구로구,57,125
1971. 오정초교 앞 보도육교,37.49072266,126.8263931,1971, 수궁동, 구로구,57,125
1973. 오리로와 서해안도로 교차로 앞,37.48859787,126.8364945,1973, 오류2동, 구로구,57,125
1974. 신도림2차e편한세상아파트 203동 앞,37.50518036,126.8825378,1974, 신도림동, 구로구,58,125
1975. 대림역 1번 출입구 밑,37.49256516,126.8947525,1975, 구로4동, 구로구,58,125
1977. 천왕역 1번 출입구 앞,37.48620987,126.8388214,1977, 오류2동, 구로구,57,125
1981. 천왕지구삼거리 앞,37.47943115,126.8426971,1981, 오류2동, 구로구,58,125
1983. 구로동롯데아파트,37.50254822,126.8838806,1983, 구로5동, 구로구,58,125
1984. 구로구청,37.49526596,126.8884735,1984, 구로2동, 구로구,58,125
1985. 구로도서관,37.49851608,126.8919907,1985, 구로5동, 구로구,58,125
1986. 태평양물산빌딩,37.48485947,126.8951874,1986, 구로3동, 구로구,58,125
1987. 개봉아이파크아파트 앞,37.49034119,126.8609314,1987, 개봉2동, 구로구,58,125
1988. 고척LIGA아파트 앞,37.50605011,126.8607864,1988, 고척1동, 구로구,58,125
1991. 오류동역 맞은편,37.49676132,126.8449631,1991, 오류1동, 구로구,58,125
1992. 구로구배드민턴실내체육관 앞,37.4917984,126.8324204,1992, 오류2동, 구로구,57,125
1993. 금강수목원아파트 앞,37.48937988,126.834198,1993, 오류2동, 구로구,57,125
1994. 삼성전자 물류센터 앞,37.49699783,126.8717804,1994, 구로2동, 구로구,58,125
1996. 구일역 1번 출입구 앞,37.49539948,126.8710098,1996, 구로구, 서울특별시,58,125
1998. 고척교 교차로,37.49856949,126.871521,1998, 구로2동, 구로구,58,125
1999. 수궁동 성당 주변,37.49525833,126.830658,1999, 수궁동, 구로구,57,125
2000. 신도림4차 e편한세상 아파트 1109동 앞,37.5123291,126.8868332,2000, 신도림동, 구로구,58,126
2002. 노들역 1번출구,37.51284409,126.9524689,2002, 노량진1동, 동작구,59,126
2003. 사육신공원앞,37.51335907,126.9480591,2003, 노량진1동, 동작구,59,126
2007. 유한양행앞,37.51293945,126.9342423,2007, 대방동, 동작구,59,126
2008. 노량진근린공원 대방공원,37.5093689,126.9280701,2008, 대방동, 동작구,59,125
2009. 보라매역 8번출구,37.50007629,126.9210815,2009, 대방동, 동작구,59,125
2012. 대림사거리(동작상떼빌아파트),37.48836136,126.9062271,2012, 신대방1동, 동작구,59,125
2013. 장승배기역 5번출구,37.50585175,126.9393616,2013, 노량진2동, 동작구,59,125
2015. 신대방삼거리역 6번출구쪽,37.49985504,126.9295654,2015, 대방동, 동작구,59,125
2016. 신대방삼거리역 3번출구쪽,37.49964523,126.9270935,2016, 대방동, 동작구,59,125
2020. 장승배기역2번출구뒷편쪽,37.50449753,126.9389877,2020, 상도2동, 동작구,59,125
2024. 상도역 1번출구,37.50217819,126.948204,2024, 상도1동, 동작구,59,125
2025. 흑석역 1번출구,37.50938034,126.9636154,2025, 노량진1동, 동작구,60,125
2026. 흑석역 4번출구,37.50858688,126.9634934,2026, 흑석동, 동작구,60,125
2027. 중앙대학교 정문 1,37.50704193,126.9591522,2027, 흑석동, 동작구,60,125
2032. 이수역 11번출구쪽,37.48550797,126.9816208,2032, 사당2동, 동작구,60,125
2033. 사당동 아르테스 웨딩앞,37.48149109,126.9815826,2033, 사당1동, 동작구,60,125
2034. 사당역 7번출구쪽,37.47689056,126.9805756,2034, 사당1동, 동작구,60,125
2036. 정금마을 마을버스정류장,37.49466324,126.9824448,2036, 사당2동, 동작구,60,125
2037. 동작역 5번출구 동작주차공원,37.50318909,126.97715,2037, 사당2동, 동작구,60,125
2038. 동작역 7번출구,37.50318146,126.9760895,2038, 사당2동, 동작구,60,125
2040. 비계 버스정류소,37.5063591,126.9690781,2040, 사당2동, 동작구,60,125
2041. 사당중학교 버스정류소,37.48683548,126.9680481,2041, 사당3동, 동작구,60,125
2048. 삼일초등학교 인근,37.48907852,126.9735642,2048, 사당3동, 동작구,60,125
2050. 노량진역 5번출구,37.51324844,126.9399719,2050,노량진2동, 동작구,59,126
2054. 삼익아파트,37.51054764,126.9448471,2054, 노량진1동, 동작구,59,125
2056. 동작구민 체육센터,37.49449921,126.9165268,2056, 신대방2동, 동작구,59,125
2057. 상도 아이파크 아파트,37.5008812,126.9417496,2057, 상도2동, 동작구,59,125
2058. 동작경찰서,37.5135231,126.9435272,2058, 노량진1동, 동작구,59,126
2059. 보라매공원 정문,37.49707794,126.9177933,2059, 신대방2동, 동작구,59,125
2060. 남성역3번출구 뒤,37.48463058,126.97155,2060, 사당4동, 동작구,60,125
2061. 한강 현대아파트 건너편,37.50592804,126.9692307,2061, 사당2동, 동작구,60,125
2062. 사당새마을금고,37.48665237,126.9678421,2062, 사당3동, 동작구,60,125
2064. 흑석한강푸르지오 106동앞,37.50535583,126.9661789,2064, 흑석동, 동작구,60,125
2065. 서울시여성가족재단,37.51198959,126.9270859,2065, 대방동, 동작구,59,126
2066. 양문교회 앞,37.48939896,126.9071121,2066, 신대방1동, 동작구,59,125
2067. 보라매역․동작세무서 버스정류장(강남중학교방면),37.49766922,126.9198685,2067, 신대방2동, 동작구,59,125
2068. 총신대 앞(육교),37.48815918,126.9664764,2068, 사당3동, 동작구,60,125
2069. 숭실대 입구역3번 출구 앞,37.4966011,126.953682,2069, 상도1동, 동작구,59,125
2070. 노량진역 2번 출구 앞,37.51391983,126.9430695,2070, 노량진1동, 동작구,59,126
2071. 대림아파트 후문 상가 옆,37.48886871,126.9719086,2071, 사당3동, 동작구,60,125
2077.노들역 3번출구,37.51193619,126.9541626,2077, 노량진1동, 동작구,59,126
2078.흑석 아크로리버하임(103동),37.51083755,126.9616318,2078, 흑석동, 동작구,60,125
2079.중앙대학교 중앙광장,37.50667191,126.9577789,2079,흑석동, 동작구,59,125
2080. 대방지하보도(대방동경남아너스빌아파트),37.51213455,126.9254379,2080, 대방동, 동작구,59,126
2082.7호선 이수역7번출구,37.4846077,126.9817963,2082, 사당1동, 동작구,60,125
2083.흑석롯데캐슬에듀포레(107동),37.50470352,126.9607315,2083, 흑석동, 동작구,60,125
2084.e편한세상 상도노빌리티 앞,37.50456238,126.946785,2084, 상도2동, 동작구,59,125
2085.강남중학교 앞,37.50274277,126.9215775,2085, 대방동, 동작구,59,125
2086.삼일수영장 앞,37.48712158,126.9743576,2086, 사당3동, 동작구,60,125
2088.상도중앙하이츠빌 입구,37.50024796,126.9497299,2088, 상도1동, 동작구,59,125
2089.사당역10번출구(금강빌딩),37.4791069,126.9815064,2089, 사당1동, 동작구,60,125
2090.기아자동차 사당점 앞,37.48377991,126.9779205,2090, 사당1동, 동작구,60,125
2091. 이수역9번출구,37.48470306,126.9805908,2091, 사당1동, 동작구,60,125
2092.흑석한강푸르지오(110동),37.50311279,126.9647141,2092, 흑석동, 동작구,60,125
2093.상도SH빌아파트 입구,37.50321198,126.9545975,2093, 상도1동, 동작구,59,125
2094.숭실대학교(중문) ,37.49550629,126.9563751,2094, 상도1동, 동작구,59,125
2095.경문고등학교 앞,37.49150085,126.9824066,2095, 사당2동, 동작구,60,125
2096.서울특별시 동작관악교육지원청,37.50251389,126.9406509,2096, 상도2동, 동작구,59,125
2102. 봉림교 교통섬,37.48408508,126.9268875,2102, 신림동, 관악구,59,125
2103. 신림동 우방아파트,37.4891777,126.9192734,2103, 신사동, 관악구,59,125
2104. 사당역 5번출구,37.47608948,126.9813309,2104, 남현동, 관악구,60,125
2105. 미성동 신림체육센터,37.48025131,126.9146042,2105, 미성동, 관악구,59,125
2106. 세이브마트,37.47372818,126.9184036,2106, 난곡동, 관악구,59,125
2108. 은천치안센터,37.48334122,126.9431992,2108, 은천동, 관악구,59,125
2109. 은천로입구 가로공원,37.48620224,126.9358139,2109, 은천동, 관악구,59,125
2110. 조원동 미성아파트,37.48319244,126.9020309,2110, 조원동, 관악구,59,125
2111. 서울대입구역 1번출구,37.48086929,126.9533157,2111, 낙성대동, 관악구,59,125
2112. 서울대입구역 마에스트로,37.4813385,126.9506455,2112, 청룡동, 관악구,59,125
2115. 관악구시설관리공단,37.47991562,126.9028397,2115, 조원동, 관악구,59,125
2116. 에이스에이존빌딩,37.48170471,126.9508286,2116, 중앙동, 관악구,59,125
2119. 중앙동 동진빌딩,37.48425674,126.9546967,2119, 중앙동, 관악구,59,125
2122. 낙성대로 입구,37.47805786,126.960495,2122, 낙성대동, 관악구,60,125
2127. 난곡종점,37.46488571,126.9194794,2127, 난향동, 관악구,59,124
2128. 관악구청교차로,37.47916412,126.9525833,2128, 낙성대동, 관악구,59,125
2129. 낙성대 과학전시관,37.46905518,126.9581451,2129, 낙성대동, 관악구,59,125
2130. 영어마을 관악캠프,37.47198868,126.9584274,2130, 낙성대동, 관악구,59,125
2137. KT&G 관악지점,37.48490143,126.9365311,2137, 은천동, 관악구,59,125
2139. 서울신성초등학교,37.4711647,126.9370194,2139, 서림동, 관악구,59,125
2140. 신림1교 교차로,37.47842789,126.9318619,2140, 서원동, 관악구,59,125
2141. 미림여고입구 교차로,37.47229385,126.9334106,2141,서림동, 관악구,59,125
2143. 서울산업정보학교,37.4706955,126.9421997,2143, 대학동, 관악구,59,125
2144. 난우길입구,37.47777557,126.9167557,2144, 미성동, 관악구,59,125
2145. 은천초등학교 육교,37.48635864,126.9429245,2145, 은천동, 관악구,59,125
2148. 낙성대역 3번출구 뒤,37.47702789,126.9633942,2148, 인헌동, 관악구,60,125
2156. 신림푸르지오아파트,37.48072052,126.9093247,2156, 독산3동, 금천구,59,125
2159. 인헌초교,37.47509003,126.9592285,2159, 낙성대동, 관악구,60,125
2164. 관악우체국,37.48476791,126.9328766,2164, 신림동, 관악구,59,125
2165. JK장평타워,37.47648239,126.9653626,2165, 행운동, 관악구,60,125
2167. 낙성대역 1번출구,37.47629547,126.9649582,2167, 인헌동, 관악구,60,125
2169. 봉천역 2번출구,37.48218918,126.942131,2169, 청룡동, 관악구,59,125
2170. 조원동 강남힐병원,37.48152924,126.9120331,2170, 조원동, 관악구,59,125
2171. 서울대입구역 5번출구,37.48154831,126.9520035,2171, 중앙동, 관악구,59,125
2172. 나들목공원,37.46940613,126.9445114,2172, 대학동, 관악구,59,125
2173. 당곡사거리,37.48974991,126.9274674,2173, 보라매동, 관악구,59,125
2174. 삼성디지털프라자관악점,37.48856354,126.9284821,2174, 신림동, 관악구,59,125
2175. 신림동걷고싶은문화의거리입구,37.48730087,126.9287033,2175, 신림동, 관악구,59,125
2176. 보라매공원 보도육교,37.48899078,126.9163818,2176, 신사동, 관악구,59,125
2178. 서울대학교 정문,37.46709442,126.9493256,2178, 대학동, 관악구,59,125
2179. 양녕로 입구,37.48218918,126.9461594,2179, 은천동, 관악구,59,125
2183. 동방1교,37.47182846,126.9339218,2183, 서림동, 관악구,59,125
2184. 구암초등학교 버스정류장,37.48949051,126.9459229,2184, 은천동, 관악구,59,125
2185. 대학동 고시촌,37.47046661,126.938652,2185, 대학동, 관악구,59,125
2186. 낙성대입구삼거리,37.4788208,126.95961,2186, 행운동, 관악구,60,125
2187. 현대시장사거리,37.4867363,126.9475174,2187, 중앙동, 관악구,59,125
2189. 봉천역 4번출구,37.48275375,126.9414063,2189, 은천동, 관악구,59,125
2190.도원맨션,37.48368835,126.9391556,2190, 은천동, 관악구,59,125
2191.대학동주민센터 ,37.47068787,126.9364853,2191, 대학동, 관악구,59,125
2195.은천교회,37.48464584,126.9345093,2195, 서원동, 관악구,59,125
2196. 봉천역 3번출구,37.4833107,126.9390259,2196, 청룡동, 관악구,59,125
2198.사랑의병원,37.47946548,126.9569321,2198, 낙성대동, 관악구,59,125
2199.신봉천주유소 A,37.47877121,126.9586945,2199, 낙성대동, 관악구,59,125
2201. 본마을 정류소 앞,37.4532814,127.0514832,2201, 양재2동, 서초구,61,124
2202.청계산입구역 1번출구,37.44893646,127.0543747,2202, 양재2동, 서초구,61,124
2203. 청계산입구역 2번출구,37.44765854,127.0550156,2203, 서초구, 서울특별시,61,124
2205. 내곡3단지 어린이공원 앞,37.45375061,127.0593796,2205, 안골, 서초구,61,124
2206. 언남초등학교 앞,37.45435715,127.0621033,2206, 안골, 서초구,61,124
2207. 내곡파출소 뒤 정자,37.45440674,127.0649262,2207,내곡동, 안골,61,124
2210. 반포1동 주민센터 앞,37.50509644,127.0131073,2210, 반포1동, 서초구,60,125
2211. 서초구립반포도서관 앞,37.50263596,127.0123138,2211, 반포1동, 서초구,60,125
2212.서초현대4차아파트 201동 맞은편,37.50065231,127.0186157,2212, 서초4동, 서초구,61,125
2213. 고속터미널역 5번출구 앞,37.5022316,127.0022583,2213, 반포2동, 서초구,60,125
2214. 신반포역 2번출구 앞,37.50411606,126.9974899,2214, 반포2동, 서초구,60,125
2215. 반포종합운동장 입구,37.5017128,126.9954758,2215, 반포2동, 서초구,60,125
"2219. 고속터미널역 8-1번, 8-2번 출구 사이",37.50619888,127.0039444,2219, 반포3동, 서초구,60,125
2221. 방일초교 마을버스 정류장,37.48561096,126.9946823,2221, 방배1동, 서초구,60,125
2222.사당역 12번출구 뒤,37.47806931,126.9820328,2222, 방배2동, 서초구,60,125
2223. 방배래미안 정문 앞,37.47261047,126.9830093,2223, 방배2동, 서초구,60,125
2225.백석예술대학교 제3캠퍼스 앞,37.4737587,126.9952469,2225, 방배3동, 서초구,60,125
2226. 신동아럭스빌아파트 앞,37.47518158,127.0013886,2226, 방배3동, 서초구,60,125
2227.방배열린문화센터 앞,37.48905182,126.9925232,2227, 방배본동, 서초구,60,125
2228.뒷벌공원 옆,37.48976898,126.986763,2228, 방배본동, 서초구,60,125
2229.로고스교회 맞은 편,37.48701096,126.9849625,2229, 방배본동, 서초구,60,125
2230.이수역 4번 출구,37.4858284,126.9826279,2230, 방배본동, 서초구,60,125
2231. 삼성타운(삼성생명) A동 맞은편,37.49691391,127.0249634,2231, 서초2동, 서초구,61,125
2233. 서초신동아1차아파트 옆,37.49111176,127.0229569,2233, 서초2동, 서초구,61,125
2235.KT 서초지사 앞,37.48215866,127.0027008,2235, 서초3동, 서초구,60,125
2237.서울남부터미널 대합실 입구,37.48455811,127.0148697,2237, 서초3동, 서초구,60,125
2239.교대역 6번출구,37.49421692,127.0137863,2239, 서초4동, 서초구,60,125
2241.양재전화국 사거리,37.48537827,127.0417023,2241, 도곡1동, 강남구,61,125
2242.양재역 11번 출구 앞,37.48398972,127.0341797,2242, 양재1동, 서초구,61,125
2243.서울가정법원,37.48149109,127.0367279,2243, 양재1동, 서초구,61,125
2244.교육개발원입구 교차로,37.47785187,127.0389099,2244, 양재1동, 서초구,61,125
2246. 서울시 품질시험소 앞,37.46920013,127.029007,2246, 양재1동, 서초구,61,125
2247.섬들근린공원,37.46263885,127.026619,2247, 양재1동, 서초구,61,124
2248. 서초리슈빌S 글로벌 앞,37.45995331,127.0247421,2248, 양재1동, 서초구,61,124
2249. 우솔초등학교 맞은편,37.45623398,127.0193481,2249, 서초구, 서울특별시,61,124
2250. 서초유치원 맞은편,37.4557991,127.0162888,2250, 서초구, 서울특별시,60,124
2251. 더케이호텔 입구(양재2) ,37.46750641,127.0344772,2251, 서초구, 서울특별시,61,125
2252. 잔디마을 마을버스 정류장,37.46332169,127.0360413,2252, 서초구, 서울특별시,61,124
2255. 양재시민의숲역 1번출구,37.47016525,127.03862,2255, 양재2동, 서초구,61,125
2256.양재동 꽃시장 입구,37.46768951,127.0403595,2256, 양재2동, 서초구,61,125
2257. 청계산 입구 삼거리,37.46268845,127.0461121,2257, 양재2동, 서초구,61,124
2258.구룡사 삼거리,37.47153854,127.0505905,2258, 양재2동, 서초구,61,125
2259. 잠원역 3번-4번 출구사이,37.51298904,127.0111771,2259, 잠원동, 서초구,60,126
2263. 바우뫼문화복지회관,37.47192764,127.0268402,2263, 양재1동, 서초구,61,125
2264. 이수역 1번출구,37.48897171,126.9827194,2264, 방배본동, 서초구,60,125
2265. 이수고가차도 남단,37.49474335,126.9830627,2265, 방배4동, 서초구,60,125
2266. 서초역 3번출구,37.49053955,127.0081635,2266, 서초3동, 서초구,60,125
2268. 서초4동주민센터 ,37.50231934,127.0222702,2268, 서초4동, 서초구,61,125
2269. 주홍교 하부,37.51034927,127.0160523,2269,잠원동, 서초구,60,125
2270. 서초포레스타 7단지,37.44896698,127.0577393,2270, 내곡동, 서초구,61,124
2271. 내방역 8번출구 앞,37.48802185,126.9941177,2271, 방배본동, 서초구,60,125
2272. 교대입구 교차로,37.4873085,127.010582,2272, 서초3동, 서초구,60,125
2273. 일동제약 사거리,37.47782898,127.038269,2273, 양재1동, 서초구,61,125
2274. 양재시민의숲역 3번출구,37.4692421,127.0398254,2274, 양재2동, 서초구,61,125
2275. 염곡치안센터 건너편,37.46149445,127.0490723,2275, 양재2동, 서초구,61,124
2277. 길마중4교 하부,37.51483917,127.0156021,2277, 잠원동, 서초구,60,126
2279. 교대역 5번출구뒤,37.49361801,127.014183,2279, 서초1동, 서초구,60,125
2280. 서울서초고용센터앞,37.48416138,127.0109711,2280, 서초3동, 서초구,60,125
2281. 연세사랑병원신관앞,37.47597885,126.9862824,2281, 방배3동, 서초구,60,125
2283. 그룹한빌딩옆,37.48652649,126.9891663,2283, 방배본동, 서초구,60,125
2284. CJ오쇼핑앞,37.4681015,126.9868012,2284, 방배2동, 서초구,60,125
2285. LH서초3단지 301동 맞은편,37.45742416,127.0226517,2285, 서초구, 서울특별시,61,124
2286. 탑성마을입구,37.4585495,127.0558853,2286, 안골, 서초구,61,124
2287. 능안마을입구,37.45561981,127.0671005,2287, 안골, 서초구,61,124
2288. 안골마을입구,37.45560837,127.0644531,2288, 안골, 서초구,61,124
2289. 남태령역 2번출구,37.46429825,126.9885254,2289, 방배2동, 서초구,60,124
2293. SPC 앞,37.48479843,127.0369949,2293, 도곡1동, 강남구,61,125
2294. 두상빌딩 앞,37.47590637,127.0462418,2294, 양재2동, 서초구,61,125
2297. 남부터미널역 1번출구,37.485672,127.0159226,2297, 서초3동, 서초구,60,125
2299. 한전아트센터 앞,37.48646927,127.0280609,2299, 서초2동, 서초구,61,125
2301. 현대고등학교 건너편,37.52407074,127.0217896,2301, 신사동, 강남구,61,126
2302. 교보타워 버스정류장(신논현역 3번출구 후면),37.5055809,127.0242767,2302, 논현1동, 강남구,61,125
2303. 논현역 10번출구,37.51137161,127.0214615,2303, 논현1동, 강남구,61,126
2304. 대현그린타워,37.5116272,127.0356522,2304, 논현2동, 강남구,61,126
2305. MCM 본사 직영점 앞,37.52064133,127.0345078,2305, 논현2동, 강남구,61,126
2306. 압구정역 2번 출구 옆,37.5271225,127.028717,2306, 신사동, 강남구,61,126
2307. 압구정 한양 3차 아파트,37.52838135,127.0390167,2307, 압구정동, 강남구,61,126
2308. 압구정파출소 앞,37.52930069,127.0355988,2308, 압구정동, 강남구,61,126
2309. 청담역(우리들병원 앞),37.51890182,127.0493851,2309, 청담동, 강남구,61,126
2310. 청담동 맥도날드 옆(위치),37.52361298,127.0401764,2310, 청담동, 강남구,61,126
2311. 학동로 래미안 아파트 앞,37.51777267,127.0430222,2311, 청담동, 강남구,61,126
2312. 청담역 13번 출구 앞,37.52058029,127.0563278,2312,청담동, 강남구,61,126
2313. 금원빌딩 앞,37.52511597,127.0524674,2313, 청담동, 강남구,61,126
2314. 청담나들목입구,37.52101517,127.0601502,2314,학동로, 청담동,61,126
2315. 봉은사역 5번출구 옆,37.51424789,127.0611191,2315, 삼성1동, 강남구,61,126
2317. 삼성도로공원,37.51588821,127.0662003,2317, 삼성1동, 강남구,61,126
2318. 삼성중앙역4번출구(문화센터더 리빌),37.51357651,127.0550308,2318, 삼성1동, 강남구,61,126
2319. 포스코사거리 서측(수협 삼성동 지점),37.50660706,127.0546799,2319, 삼성2동, 강남구,61,125
2320. 도곡역 대치지구대 방향,37.4919281,127.0569687,2320, 대치1동, 강남구,61,125
2321. 학여울역 사거리,37.49611664,127.0694428,2321, 대치2동, 강남구,61,125
2323. 주식회사 오뚜기 정문 앞,37.50221252,127.0672073,2323, 대치2동, 강남구,61,125
2324. 천주교 대치 2동 교회 옆,37.50043869,127.0662231,2324, 대치2동, 강남구,61,125
2325. 대치삼성아파트 앞 교차로,37.4986496,127.0593185,2325, 대치1동, 강남구,61,125
2326. 대치동 삼성로,37.50239563,127.0587997,2326, 대치4동, 강남구,61,125
2327. 뱅뱅사거리 랜드마크타워 앞,37.49055099,127.0314636,2327, 역삼1동, 강남구,61,125
2328. 르네상스 호텔 사거리 역삼지하보도 7번출구 앞,37.50321198,127.0427322,2328, 역삼1동, 강남구,61,125
2329. 르네상스호텔사거리 역삼지하보도 2번출구,37.50235748,127.04319,2329, 역삼2동, 강남구,61,125
2330. 역삼월드메르디앙아파트 앞,37.49219894,127.0394592,2330, 역삼1동, 강남구,61,125
2331. 동영문화센터앞,37.49805069,127.0446014,2331, 역삼2동, 강남구,61,125
2332. 선릉역3번출구,37.50400925,127.0490799,2332, 대치4동, 강남구,61,125
2333. 양재역 3번출구 주변,37.48515701,127.0340729,2333, 도곡1동, 강남구,61,125
2334. 삼호아파트 2동 ( 간선도로),37.49375916,127.0458984,2334, 도곡1동, 강남구,61,125
2335. 3호선 매봉역 3번출구앞,37.48676682,127.0467606,2335, 도곡1동, 강남구,61,125
2336. 강남세브란스교차로  래미안그레이튼 104동 앞,37.49423599,127.0474625,2336, 도곡2동, 강남구,61,125
2337. 대모산입구역 2번출구 앞,37.49207687,127.0719757,2337, 개포2동, 강남구,61,125
2339. 현대아파트 정문 앞,37.48326111,127.0522995,2339, 개포4동, 강남구,61,125
2340. 삼호물산버스정류장(23370) 옆,37.47750854,127.0451737,2340, 개포4동, 강남구,61,125
2341. 일원역 4~5번 출구 사이,37.4833107,127.0849381,2341, 일원본동, 강남구,62,125
2342. 대청역 1번출구  뒤,37.49400711,127.0795136,2342, 개포3동, 강남구,62,125
2343. 세곡사거리 대왕파출소 앞,37.46531677,127.1077271,2343, 세곡동, 강남구,62,125
2344. 리엔파크 2단지 앞,37.46506119,127.1011963,2344, 세곡동, 강남구,62,125
2347. 두산건설 본사,37.51863861,127.0354004,2347, 논현2동, 강남구,61,126
2348. 포스코사거리(기업은행),37.50723267,127.0568543,2348, 삼성1동, 강남구,61,125
2349. 역삼빌딩 앞(하나은행 옆),37.50154495,127.0385666,2349, 역삼1동, 강남구,61,125
2350. 래미안그레이튼102동앞,37.49482346,127.047905,2350, 도곡2동, 강남구,61,125
2351. 청소년수련관(수영장)앞,37.48387909,127.0890274,2351, 일원본동, 강남구,62,125
2352. 서울본부세관(건설회관 앞),37.51758957,127.0350266,2352, 논현2동, 강남구,61,126
2353. 강남구청역 2번출구 뒤,37.51681137,127.0404739,2353, 논현2동, 강남구,61,126
2354. 청담역 2번출구,37.51978683,127.0567627,2354, 삼성1동, 강남구,61,126
2356. 강남구청,37.51807022,127.0471191,2356, 삼성2동, 강남구,61,126
2357. 르네상스호텔사거리 역삼지하보도 3번출구 앞 (더 오번 빌딩 명동칼국수 앞),37.50166321,127.0429764,2357, 역삼2동, 강남구,61,125
2358. 구룡초사거리 (현대아파트10동 앞 ),37.48138428,127.0539169,2358, 개포1동, 강남구,61,125
"2359. 국립국악중,고교 정문 맞은편",37.47560501,127.0503769,2359, 개포4동, 강남구,61,125
2360. 도곡1동 주민센터 교차로,37.4928093,127.0413895,2360, 도곡1동, 강남구,61,125
2362. 신사동 가로수길 입구,37.51763535,127.0224533,2362, 신사동, 강남구,61,126
2363. 강남 을지병원 교차로,37.51913834,127.0275192,2363, 논현1동, 강남구,61,126
2364. 도산공원교차로,37.52124023,127.0318985,2364, 신사동, 강남구,61,126
2365. K+ 타워 앞,37.52330017,127.038475,2365, 신사동, 강남구,61,126
2368. 도곡동 경남아파트 건너편,37.48934174,127.0412979,2368, 도곡1동, 강남구,61,125
2369. KT선릉타워,37.50542831,127.0528717,2369, 대치4동, 강남구,61,125
2370. 한티역 3번출구,37.49655151,127.0542984,2370, 대치1동, 강남구,61,125
2371. 한국우편사업진흥원,37.51474762,127.0351334,2371, 논현2동, 강남구,61,126
2372. 대치역 사거리,37.49449921,127.063797,2372, 대치2동, 강남구,61,125
2373. 개포동역 사거리,37.48927689,127.0655747,2373, 개포2동, 강남구,61,125
2375. 수서역 1번출구 앞,37.48735046,127.1009979,2375, 일원본동, 강남구,62,125
2376. 수서역 6번출구 앞,37.48677826,127.1005173,2376,수서동, 강남구,62,125
2377. 수서역 5번출구,37.48735046,127.1023254,2377, 수서동, 강남구,62,125
2380. 삼성동베이직하우스앞,37.51169586,127.0493469,2380, 삼성2동, 강남구,61,126
2381. 언주역 6번출구앞,37.50636673,127.034523,2381, 역삼1동, 강남구,61,125
2382. 역삼동 sk뷰 501동앞,37.50122833,127.0503616,2382, 대치4동, 강남구,61,125
2383. 보금자리정원,37.46632767,127.0948868,2383, 세곡동, 강남구,62,125
2384. 자곡사거리,37.47602844,127.1059418,2384, 세곡동, 강남구,62,125
2385. 학동역,37.51395035,127.0301514,2385, 논현1동, 강남구,61,126
2386. 크린랩 본사,37.50958633,127.0409088,2386, 논현2동, 강남구,61,125
2387. 래미안강남힐즈 사거리,37.47245407,127.096077,2387, 세곡동, 강남구,62,125
2388. 강남구 도시관리공단,37.51678467,127.0516129,2388, 삼성2동, 강남구,61,126
2389. 경기여자고등학교 후문 (삼성로3길 입구),37.48616028,127.0672379,2389, 개포2동, 강남구,61,125
2390. 구룡마을 입구 (래미안블레스티지 아파트),37.48088074,127.0630417,2390, 개포1동, 강남구,61,125
2391. 구룡터널 입구(개포1단지아파트),37.47598648,127.0596237,2391, 개포1동, 강남구,61,125
2392. 구룡산 입구 (구룡산 서울둘레길 입구),37.47447205,127.0554504,2392, 개포4동, 강남구,61,125
2393. 구룡사 앞 교차로 (보도육교),37.47200012,127.0513382,2393, 개포4동, 강남구,61,125
